FID,Property_T,Typology,Address,Locality_A,Latitude,longitude,SIZE__sq_f,Rent_INR_,Deposit_IN,RentPSF,DepositPSF
1,1 RK, Apartments,"Chandivali Mhada Colony, MHADA Colony, Chandivali, Powai",Chandivali,19.11134,72.89669,280,17500,30000,62.5,107.1428571
2,1 RK, Apartments,"Mahim West, Mahim",Mahim West,19.03201,72.8401,400,30000,100000,75,250
3,1 RK, Apartments,NA,Chembur East,19.05361,72.90057,1000,40000,300000,40,300
4,1 RK, Apartments,"Sher- E- Punjab Colony, Andheri East",Andheri East,19.12595,72.86105,450,21000,75000,46.66666667,166.6666667
5,1 RK, Apartments,"Ahimsa Enclave, Ahimsa Marg, Sunder Nagar, Goregaon West",Malad West,19.17537,72.83819,375,23000,75000,61.33333333,200
6,1 RK, Apartments,"Shere Punjab Soc., Prem Lane, Anand Vihar, Sher E Punjab Colony, Jogeshwari East",Andheri East,19.12759,72.86127,550,15000,50000,27.27272727,90.90909091
7,1 RK, Apartments,"Gulmohar Road, MHADA Colony, Juhu",Juhu,19.09882,72.83207,300,30000,100000,100,333.3333333
8,1 RK, Apartments,Chembur East,Chembur East,19.0328,72.89635,450,20000,75000,44.44444444,166.6666667
9,1 RK, Apartments,Breach Candy,Breach Candy,18.97463,72.8065,500,51000,150000,102,300
10,1 RK, Apartments,Andheri East,Chakala,19.11549,72.8727,500,25000,75000,50,150
11,1 RK, Apartments,"Hiranandani Gardens, Powai",IIT Powai,19.11538,72.90914,400,28000,75000,70,187.5
12,1 RK, Apartments,NA,Andheri East,19.07598,72.87766,400,18000,50000,45,125
13,1 RK, Apartments,Goregaon East,Aarey Milk Colony,19.15515,72.86786,425,18000,50000,42.35294118,117.6470588
14,1 RK, Apartments,Worli,Worli,18.9872015,72.8290456,450,45000,100000,100,222.2222222
15,1 RK, Apartments,"Rokadia lane, Borivali west,",Borivali West,19.07598,72.87766,550,18000,80000,32.72727273,145.4545455
16,1 RK, Apartments,"Kanakia Park, Mira Road East, Mira Bhayandar",Mira Road,19.30138,72.8774,395,9500,50000,24.05063291,126.5822785
17,1 RK, Apartments,Malad West,Malad West,19.18275,72.84016,400,21000,60000,52.5,150
18,1 RK, Apartments,"1406-A/16E,Link Road,Mindspace,Malad West",Malad West,19.18513,72.83632,400,18000,50000,45,125
19,1 RK, Apartments,"5,Magan Nathuram Road,Jarimari,Sakinaka",Jogeshwari East,19.09014,72.8812,325,15000,50000,46.15384615,153.8461538
20,1 RK, Houses,Bandra West,Pali Hill,19.06069,72.83625,400,37000,0,92.5,0
21,1 RK, Apartments,"Elphinstone Road, Saidham Nagar, Parel",Elphinstone Road,19.0075336,72.8359346,500,30000,50000,60,100
22,1 RK, Apartments,"Chitra Cinema, Gautam Nagar, Dadar",Dadar (C R),19.01385,72.84467,600,35000,100000,58.33333333,166.6666667
23,1 RK, Apartments,"Nalasopara West, Nala Sopara",Nalasopara West,19.41834,72.7956,485,3500,15000,7.216494845,30.92783505
24,1 RK, Apartments,"1,Marol Maroshi Road,Sankasth Pada Welfare Society,Marol,Andheri East",Andheri East,19.11718,72.87893,375,20000,85000,53.33333333,226.6666667
25,1 RK, Apartments,Santacruz East,Santacruz East,19.07937,72.85626,550,30000,100000,54.54545455,181.8181818
26,1 RK, Apartments,"Dombivali Station (E), Manpada Road, Krishna Radha Society, Dombivli East, Dombivli",Dombivali East,19.20572,73.09553,655,7200,50000,10.99236641,76.33587786
27,1 RK, Apartments,Worli,Worli,18.9872,72.82905,400,45000,100000,112.5,250
28,1 RK, Apartments,bldg no 27 rmms gokuldham goregaon east,Goregaon East,19.07598,72.87766,450,17000,50000,37.77777778,111.1111111
29,1 RK, Apartments,Bandra West,Bandra West,19.06069,72.83625,300,45000,150000,150,500
30,1 RK, Apartments,"249,Senapati Bapat Marg,Babasaheb Ambedkar Nagar,Dadar West",Dadar West,19.01546,72.84017,250,23000,50000,92,200
31,1 RK, Apartments,"Thakur Village, Kandivali East",Thakur Village,19.21083,72.87474,250,12000,40000,48,160
32,1 RK, Apartments,"Service Road,Chakala,Andheri East",Andheri East,19.11731,72.85552,310,16000,40000,51.61290323,129.0322581
33,1 RK, Apartments,Virar,Virar East,19.45636,72.79246,360,4500,20000,12.5,55.55555556
34,1 RK, Apartments,Hiranandani,Powai,19.11968,72.90508,400,20000,50000,50,125
35,1 RK, Apartments,"15/B,Shivdham Complex,Dindoshi,Malad East",Goregaon East,19.17513,72.86189,450,18500,50000,41.11111111,111.1111111
36,1 RK, Apartments,"Thakur Complex, Kandivali East",Kandivali East,19.20954,72.86411,410,30000,200000,73.17073171,487.804878
37,1 RK, Apartments,"Vasant Valley Road, Suchi Dham, Dindoshi, Malad East",Malad East,19.17689,72.86326,350,20000,40000,57.14285714,114.2857143
38,1 RK, Apartments,"Off Linking Road, Khar West",Bandra West,19.06766,72.83362,500,50000,200000,100,400
39,1 RK, Apartments,Goregaon East,Goregaon East,19.1551485,72.8678551,300,12000,50000,40,166.6666667
40,1 RK, Apartments,"29th Road, Bandra West",Bandra West,19.06069,72.83625,500,45000,250000,90,500
41,1 RK, Apartments,"Gokuldham Colony, Goregaon East",Goregaon East,19.1702821,72.8698946,400,15000,50000,37.5,125
42,1 RK, Apartments,"Thakur Complex, Kandivali East",Kandivali East,19.20954,72.86411,350,14000,50000,40,142.8571429
43,1 RK, Apartments,Andheri East,Andheri East,19.11549,72.8727,180,17000,35000,94.44444444,194.4444444
44,1 RK, Apartments,"Dayal Building,Appasaheb Marathe Marg,Century Bazaar,Prabhadevi",Prabhadevi,19.01318,72.82748,350,33000,100000,94.28571429,285.7142857
45,1 RK, Apartments,"8,Mahatma Jyotiba Phule Road,Nabard Nagar,Saraf Chaudhary Nagar,Kandivali East",Kandivali East,19.20645,72.86572,410,19000,60000,46.34146341,146.3414634
46,1 RK, Apartments,"Nalasopara West, Nala Sopara",Nalasopara West,19.41834,72.7956,380,5000,30000,13.15789474,78.94736842
47,1 RK, Apartments,Ghatkopar West,Ghatkoparwest,19.0908063,72.9076669,535,22000,88000,41.12149533,164.4859813
48,1 RK, Apartments,Andheri West,Andheri West,19.13632,72.82766,300,17000,50000,56.66666667,166.6666667
49,1 RK, Apartments,"1,Marol Maroshi Road,Sankasth Pada Welfare Society,Marol,Andheri East",Andheri East,19.11718,72.87893,375,20000,85000,53.33333333,226.6666667
50,1 RK, Apartments,Santacruz East,Santacruz East,19.07937,72.85626,550,30000,100000,54.54545455,181.8181818
51,1 RK, Apartments,"Dombivali Station (E), Manpada Road, Krishna Radha Society, Dombivli East, Dombivli",Dombivali East,19.20572,73.09553,655,7200,50000,10.99236641,76.33587786
52,1 RK, Apartments,Worli,Worli,18.9872,72.82905,400,45000,100000,112.5,250
53,1 RK, Apartments,bldg no 27 rmms gokuldham goregaon east,Goregaon East,19.07598,72.87766,450,17000,50000,37.77777778,111.1111111
54,1 RK, Apartments,Bandra West,Bandra West,19.06069,72.83625,300,45000,150000,150,500
55,1 RK, Apartments,"249,Senapati Bapat Marg,Babasaheb Ambedkar Nagar,Dadar West",Dadar West,19.01546,72.84017,250,23000,50000,92,200
56,1 RK, Apartments,"Thakur Village, Kandivali East",Thakur Village,19.21083,72.87474,250,12000,40000,48,160
57,1 RK, Apartments,"Service Road,Chakala,Andheri East",Andheri East,19.11731,72.85552,310,16000,40000,51.61290323,129.0322581
58,1 RK, Apartments,Virar,Virar East,19.45636,72.79246,360,4500,20000,12.5,55.55555556
59,1 RK, Apartments,Hiranandani,Powai,19.11968,72.90508,400,20000,50000,50,125
60,1 RK, Apartments,"15/B,Shivdham Complex,Dindoshi,Malad East",Goregaon East,19.17513,72.86189,450,18500,50000,41.11111111,111.1111111
61,1 RK, Apartments,"Thakur Complex, Kandivali East",Kandivali East,19.20954,72.86411,410,30000,200000,73.17073171,487.804878
62,1 RK, Apartments,"Vasant Valley Road, Suchi Dham, Dindoshi, Malad East",Malad East,19.17689,72.86326,350,20000,40000,57.14285714,114.2857143
63,1 RK, Apartments,"Off Linking Road, Khar West",Bandra West,19.06766,72.83362,500,50000,200000,100,400
64,1 RK, Apartments,Goregaon East,Goregaon East,19.1551485,72.8678551,300,12000,50000,40,166.6666667
65,1 RK, Apartments,"29th Road, Bandra West",Bandra West,19.06069,72.83625,500,45000,250000,90,500
66,1 RK, Apartments,"Gokuldham Colony, Goregaon East",Goregaon East,19.1702821,72.8698946,400,15000,50000,37.5,125
67,1 RK, Apartments,"Thakur Complex, Kandivali East",Kandivali East,19.20954,72.86411,350,14000,50000,40,142.8571429
68,1 RK, Apartments,Andheri East,Andheri East,19.11549,72.8727,180,17000,35000,94.44444444,194.4444444
69,1 RK, Apartments,"Dayal Building,Appasaheb Marathe Marg,Century Bazaar,Prabhadevi",Prabhadevi,19.01318,72.82748,350,33000,100000,94.28571429,285.7142857
70,1 RK, Apartments,"8,Mahatma Jyotiba Phule Road,Nabard Nagar,Saraf Chaudhary Nagar,Kandivali East",Kandivali East,19.20645,72.86572,410,19000,60000,46.34146341,146.3414634
71,1 RK, Apartments,"Nalasopara West, Nala Sopara",Nalasopara West,19.41834,72.7956,380,5000,30000,13.15789474,78.94736842
72,1 RK, Apartments,Ghatkopar West,Ghatkoparwest,19.0908063,72.9076669,535,22000,88000,41.12149533,164.4859813
73,1 RK, Apartments,Andheri West,Andheri West,19.13632,72.82766,300,17000,50000,56.66666667,166.6666667
74,1 RK, Apartments,Malad West,Malad West,19.18275,72.84016,400,17500,50000,43.75,125
75,1 RK, Apartments,"Chandivali, Powai",Powai,19.10749,72.90176,300,24000,80000,80,266.6666667
76,1 RK, Apartments,Goregaon East,Goregaon East,19.15515,72.86786,400,20000,50000,50,125
77,1 RK, Apartments,"Citizen Colony, Naigaon East",Naigaon East,19.36324,72.84785,350,3500,15000,10,42.85714286
78,1 RK, Apartments,"Poonam Nagar, Jogeshwari East",Jogeshwari East,19.13731,72.8678,350,17000,50000,48.57142857,142.8571429
79,1 RK, Apartments,Goregaon East,Goregaon East,19.15515,72.86786,400,17500,50000,43.75,125
80,1 RK, Apartments,Mulund East,Mulund East,19.15651,72.96378,420,15000,75000,35.71428571,178.5714286
81,1 RK, Apartments,Mulund West,Mulund West,19.17255,72.94254,350,15000,50000,42.85714286,142.8571429
82,1 RK, Apartments,"Vasant Vihar, Thane West, Thane",Thane,19.22451,72.9682,400,13000,75000,32.5,187.5
83,1 RK, Apartments,"Royal Palms Road, Royal Palms Estate, Aarey Colony, Goregaon East",Goregaon East,19.14751,72.893,340,13000,30000,38.23529412,88.23529412
84,1 RK, Apartments,"Santa Cruz East, Sen Nagar, Santacruz East",Santacruz East,19.081558,72.8417388,350,20000,50000,57.14285714,142.8571429
85,1 RK, Apartments,"Nalasopara West, Nala Sopara",Nalasopara West,19.41834,72.7956,350,5000,40000,14.28571429,114.2857143
86,1 RK, Apartments,"Road Number 7,Kondivita,Andheri East",Andheri East,19.11761,72.87148,450,23000,75000,51.11111111,166.6666667
87,1 RK, Apartments,"Mahim West, Mahim",Mahim West,19.03201,72.8401,300,20000,100000,66.66666667,333.3333333
88,1 RK, Apartments,"Nallasopara, Nala Sopara",Nalasopara West,19.41834,72.7956,350,4000,20000,11.42857143,57.14285714
89,1 RK, Apartments,"Nalasopara West, Nala Sopara",Nalasopara West,19.41834,72.7956,400,5000,25000,12.5,62.5
90,1 RK, Apartments,"Deonar, Chembur East",Deonar,19.0447,72.91025,660,35000,150000,53.03030303,227.2727273
91,1 RK, Apartments,"A-WING,Anand Nagar,Dahisar East",Dahisar East,19.25645,72.86551,360,12000,50000,33.33333333,138.8888889
92,1 RK, Apartments,Mahalaxmi nagar naigaon east,Naigaon East,19.07598,72.87766,400,4500,20000,11.25,50
93,1 RK, Apartments,Malad West,Malad West,19.1827551,72.8401539,350,18000,50000,51.42857143,142.8571429
94,1 RK, Apartments,"Vasai-Nallasopara Link Road, Vasant Nagari Road",Vasai Road East,19.38233,72.83287,365,5000,30000,13.69863014,82.19178082
95,1 RK, Apartments,"Mira Road East, Mira Bhayandar",Mira Road,19.07598,72.87766,755,15500,60000,20.52980132,79.47019868
96,1 RK, Apartments,Jogeshwari West,Jogeshwari West,19.14051,72.84216,360,20000,100000,55.55555556,277.7777778
97,1 RK, Apartments,NA,Dadar West,19.07134,72.87811,390,32000,100000,82.05128205,256.4102564
98,1 RK, Apartments,Malad West,Malad West,19.1827551,72.8401539,300,15000,50000,50,166.6666667
99,1 RK, Apartments,"Chandivali Road, MHADA Colony, Chandivali, Powai",Chandivali,19.11276,72.89761,390,21000,75000,53.84615385,192.3076923
100,1 RK, Apartments,Goregaon East,Goregaon East,19.15515,72.86786,340,15000,50000,44.11764706,147.0588235
101,1 RK, Apartments,YASHWANT NAGAR,Virar West,19.07598,72.87766,400,5000,25000,12.5,62.5
102,1 RK, Apartments,"Angel Apartment, Battipada, Bhandup West",Bhandup West,19.1492,72.93537,450,20000,100000,44.44444444,222.2222222
103,1 RK, Apartments,"MHB Colony, Mhada Colony, Borivali",Borivali West,19.233,72.839,350,11000,50000,31.42857143,142.8571429
104,1 RK, Apartments,"Tilak Nagar, Kurla East",Tilak Nagar,19.0682673,72.8973302,225,13000,25000,57.77777778,111.1111111
105,1 RK, Apartments,Naigaon,Naigaon East,19.34291,72.82349,330,4500,20000,13.63636364,60.60606061
106,1 RK, Apartments,"Thane West, Thane",Thane,19.24447,72.98149,400,12000,75000,30,187.5
107,1 RK, Apartments,Goregaon East,Goregaon East,19.1551485,72.8678551,400,16000,60000,40,150
108,1 RK, Apartments,"A-3,Mahindra Gardens,Piramal Nagar,Goregaon West",Goregaon West,19.16868,72.84774,300,15000,50000,50,166.6666667
109,1 RK, Apartments,"Gaondevi Maidan, Kalwa",Kalwa West,19.07598,72.87766,350,8500,50000,24.28571429,142.8571429
110,1 RK, Apartments,NA,Chakala,19.1097712,72.8582672,300,16000,50000,53.33333333,166.6666667
111,1 RK, Apartments,Malad East,Malad East,19.1808735,72.8574558,400,16000,100000,40,250
112,1 RK, Apartments,"Chandivali Road, MHADA Colony, Chandivali, Powai",Chandivali,19.11276,72.89761,470,22000,75000,46.80851064,159.5744681
113,1 RK, Apartments,Badlapur,Badlapur West,19.16679,73.23679,380,3500,20000,9.210526316,52.63157895
114,1 RK, Apartments,Kandivali West,Kandivali West,19.1998211,72.842594,240,12000,50000,50,208.3333333
115,1 RK, Apartments,"Virar East, Virar",Virar East,19.4608988,72.8181516,370,4500,20000,12.16216216,54.05405405
116,1 RK, Apartments,"Sher E Punjab, Andheri East  400093,",Andheri East,19.11365,72.86974,370,24000,70000,64.86486486,189.1891892
117,1 RK, Apartments,"Dombivli West, Dombivli",Dombivali West,19.21576,73.07299,450,6000,40000,13.33333333,88.88888889
118,1 RK, Apartments,"Gokul Accord, Saraf Chaudhary Nagar, Kandivali East",Kandivali East,19.21015,72.86325,580,18000,80000,31.03448276,137.9310345
119,1 RK, Apartments,"Pride of Kalina Co-op. HSG Soc. Ltd., Kolivery Village, Vidya Nagari, Kalina, Santacruz East",Kalina,19.0759294,72.8659943,300,20000,100000,66.66666667,333.3333333
120,1 RK, Apartments,NA,Andheri West,19.1136,72.8697,350,18000,18000,51.42857143,51.42857143
121,1 RK, Apartments,Goregaon East,Goregaon East,19.15515,72.86786,380,25000,75000,65.78947368,197.3684211
122,1 RK, Apartments,Andheri East,Andheri East,19.1154908,72.8726952,406,21500,100000,52.95566502,246.3054187
123,1 RK, Apartments,"Thakur Village, Kandivali East",Kandivali East,19.21083,72.87474,420,16500,50000,39.28571429,119.047619
124,1 RK, Apartments,NA,Powai,19.1197,72.9051,420,24000,72000,57.14285714,171.4285714
125,1 RK, Apartments,Dahisar East,Dahisar East,19.25393,72.86725,250,9000,50000,36,200
126,1 RK, Apartments,NA,Chembur East,19.0328,72.8964,390,16000,80000,41.02564103,205.1282051
127,1 RK, Apartments,"Andheri - Kurla Road,Marol,Andheri East",Marol,19.10812,72.87944,1200,12000,24000,10,20
128,1 RK, Apartments,"Mira Road East, Mira Bhayandar",Mira Road,19.28714,72.86884,350,9000,50000,25.71428571,142.8571429
129,1 RK, Apartments,"Nalasopara West, Nala Sopara",Nalasopara West,19.41834,72.7956,372,2655,10000,7.137096774,26.88172043
130,1 RK, Apartments,NA,Mira Road,19.2871,72.8688,380,8000,50000,21.05263158,131.5789474
131,1 RK, Apartments,NA,Kandivali West,19.1998,72.8426,700,20000,200000,28.57142857,285.7142857
132,1 RK, Apartments,NA,Ulhasnagar East,19.2215,73.1645,340,3500,21000,10.29411765,61.76470588
133,1 RK, Apartments,"Gaikwad Nagar, Malvani, Malad West",Malad West,19.18108,72.81462,200,7000,30000,35,150
134,1 RK, Apartments,"Nalasopara West, Nala Sopara",Nalasopara West,19.41834,72.7956,375,4000,15000,10.66666667,40
135,1 RK, Apartments,"Mahim West, Mahim",Mahim West,19.03201,72.8401,250,28000,50000,112,200
136,1 RK, Apartments,"Vile Parle East, Vile Parle",Vile Parle East,19.07598,72.87766,350,20000,60000,57.14285714,171.4285714
137,1 RK, Apartments,Andheri East,Andheri East,19.11549,72.8727,300,4000,4000,13.33333333,13.33333333
138,1 RK, Apartments,royal palm goregaon east,Goregaon East,19.07598,72.87766,331,16000,35000,48.33836858,105.7401813
139,1 RK, Apartments,"Linking Road, Shastri Nagar, Santacruz West",Santacruz West,19.0869,72.83453,425,22000,100000,51.76470588,235.2941176
140,1 RK, Apartments,Goregaon East,Goregaon East,19.15515,72.86786,600,5500,5500,9.166666667,9.166666667
141,1 RK, Apartments,"Panch Sheel Building,Devidayal Road,Mulund,Mulund West",Mulund West,19.17612,72.95173,275,17000,50000,61.81818182,181.8181818
142,1 RK, Apartments,"N-7,LIC Colony Road,LIC Colony,Borivali West",Borivali West,19.24139,72.85309,400,16500,50000,41.25,125
143,1 RK, Apartments,"Chembur Colony, Doctor Choitram Gidwani Road, Chembur Colony, ??????? ??????, Chembur East",Chembur East,19.04454,72.8932,350,13000,50000,37.14285714,142.8571429
144,1 RK, Apartments,"Mahashakti Apartment, Ekvira Darshan, Virar East, Virar",Virar East,19.44078,72.81598,375,3500,15000,9.333333333,40
145,1 RK, Apartments,"Bhayander East, Mira Bhayandar",Bhayander East,19.09364,72.89278,415,7500,30000,18.07228916,72.28915663
146,1 RK, Apartments,Umiya Park Ashish Complex Dahisar East,Dahisar East,19.07598,72.87766,450,12000,50000,26.66666667,111.1111111
147,1 RK, Apartments,"Yashodhan Co-Operavtive Hsg. Society,Hanuman Chowk,Mulund East",Mulund East,19.16858,72.95621,450,15000,75000,33.33333333,166.6666667
148,1 RK, Apartments,"Shri Navyuvak Building, C.G.S. Colony, Kanjurmarg East",Bhandup East,19.13998,72.93805,500,17000,50000,34,100
149,1 RK, Apartments,NA,Andheri East,19.1136,72.8697,225,16000,25000,71.11111111,111.1111111
150,1 RK, Apartments,Bhandup East,Bhandup East,19.1465,72.94598,508,11000,50000,21.65354331,98.42519685
151,1 RK, Apartments,Mulund West,Mulund West,19.17255,72.94254,350,14000,100000,40,285.7142857
152,1 RK, Apartments,"32,Bharda Wadi Road,Fish Market Area,Navneeth Colony,Andheri West",Andheri West,19.12522,72.84242,300,17500,50000,58.33333333,166.6666667
153,1 RK, Apartments,"Apna Ghar Cooperative Housing Society, Rajashree Sahu Marg, Parsi Colony, Bima Nagar, Andheri East",Andheri East,19.11607,72.85085,200,4500,10000,22.5,50
154,1 RK, Apartments,"1,1st Cross Lane,Shahani Colony,Navghar,Mulund East",Mulund East,19.16638,72.96148,250,10000,30000,40,120
155,1 RK, Apartments,"Elphinstone Station (W), Krishna Nagar, Parel",Elphinstone Road,19.00706,72.8354,250,15000,50000,60,200
156,1 RK, Apartments,jagruti metro station,Ghatkoparwest,19.07598,72.87766,450,6000,20000,13.33333333,44.44444444
157,1 RK, Apartments,Kadam Chawl,Jogeshwari West,19.08736,72.87783,330,16000,60000,48.48484848,181.8181818
158,1 RK, Apartments,"Gorai 2, Borivali West",Borivali West,19.22952,72.82396,500,10000,50000,20,100
159,1 RK, Apartments,"90 Feet Road,Hanuman Chowk,Mulund East",Mulund East,19.17102,72.96174,400,14500,75000,36.25,187.5
160,1 RK, Houses,"Ghatkopar - Andheri Road, Parsi Wadi, Safed Pul, Asalpha",Ghatkoparwest,19.09436,72.89793,360,10000,0,27.77777778,0
161,1 RK, Apartments,"Mogra Pada, Natwar Nagar, Jogeshwari East",Jogeshwari East,19.12621,72.84933,225,7000,100000,31.11111111,444.4444444
162,1 RK, Apartments,"Om Shiv Sai CHS, Air Force Quarters, Sion East, Sion",Sion East,19.04671,72.86655,275,15000,100000,54.54545455,363.6363636
163,1 RK, Apartments,"A-1,Western Express Highway,Nensey Colony,Borivali East",Borivali East,19.23823,72.86388,400,15000,50000,37.5,125
164,1 RK, Apartments,"Masjid Bandar West, Masjid Bandar",Masjid Bunder West,18.95111,72.83604,550,20000,100000,36.36363636,181.8181818
165,1 RK, Apartments,"Malad Railway Station (E), Malad East",Malad East,19.18836,72.84982,180,10000,50000,55.55555556,277.7777778
166,1 RK, Apartments,"3,Wadala East,Sangam Nagar",Wadala East,19.02467,72.87009,270,10000,50000,37.03703704,185.1851852
167,1 RK, Apartments,"A WING,Asha Nagar,Mulund West",Mulund West,19.16624,72.94318,325,10000,50000,30.76923077,153.8461538
168,1 RK, Apartments,"11,Phoolpada Road,Virar East,Virar,",Virar East,19.45518,72.82781,280,3000,10000,10.71428571,35.71428571
169,1 RK, Apartments,"98,Kannamwar Nagar II,Vikhroli East",Vikhroli East,19.12066,72.94023,300,3000,2500,10,8.333333333
170,1 RK, Apartments,"601/B2, NILKANTH NAGAR CHS",Mulund West,19.17255,72.94254,250,15000,50000,60,200
171,1 RK, Apartments,"Agashi Road, Arnala, Virar West, Tembhi",Virar West,19.45906,72.75051,375,4500,25000,12,66.66666667
172,1 RK, Apartments,"2,Currey Road Bridge,Gundecha Garden,Parel",Currey Road West,18.99506,72.83348,225,15000,50000,66.66666667,222.2222222
173,1 RK, Apartments,"Chandivali Mhada Colony, MHADA Colony, Chandivali, Powai",Chandivali,19.11134,72.89669,280,17500,40000,62.5,142.8571429
174,1 RK, Apartments,Breach Candy,Breach Candy,18.97463,72.8065,400,50000,100000,125,250
175,1 RK, Apartments,swatantra sainik nagar veera desai road amboli andheri west,Andheri West,19.07598,72.87766,500,25000,75000,50,150
176,1 RK, Apartments,"53-A,Chapel Road,Ranwar,Bandra West",Bandra West,19.05254,72.82874,350,38000,100000,108.5714286,285.7142857
177,1 RK, Apartments,"Kalina, Santacruz East",Kalina,19.076277,72.8653997,340,20000,100000,58.82352941,294.1176471
178,1 RK, Apartments,"Sunder Nagar, Malad West",Malad West,19.1758,72.84195,350,21000,50000,60,142.8571429
179,1 RK, Apartments,"C1-103/Wing 1,Sunder Nagar,Jogeshwari East",Andheri East,19.12828,72.86926,400,17000,50000,42.5,125
180,1 RK, Apartments,"Sindhi Society, Chembur East",Chembur East,19.05111,72.89069,500,25000,100000,50,200
181,1 RK, Apartments,"Kenwood Park Tower, Ramdev Park Road, Medetiya Nagar, Queens Park, Mira Road East, Mira Bhayandar",Mira Road,19.29388,72.86597,500,8500,35000,17,70
182,1 RK, Apartments,"Babulnath, Babulnath, Khareghat Colony, Malabar Hill",Malabar Hill,18.95799,72.80907,400,45000,250000,112.5,625
183,1 RK, Apartments,"Thakur Village, Kandivali East",Kandivali East,19.21083,72.87474,410,15000,100000,36.58536585,243.902439
184,1 RK, Apartments,Goregaon East,Aarey Milk Colony,19.15515,72.86786,425,18000,45000,42.35294118,105.8823529
185,1 RK, Apartments,Bandra West,Bandra West,19.06069,72.83625,500,34000,100000,68,200
186,1 RK, Apartments,Prabhadevi,Prabhadevi,19.01585,72.828,350,24000,50000,68.57142857,142.8571429
187,1 RK, Apartments,Malad West,Malad West,19.18275,72.84016,450,17500,60000,38.88888889,133.3333333
188,1 RK, Apartments,"Virar West, Virar",Virar West,19.46188,72.77766,400,4500,15000,11.25,37.5
189,1 RK, Apartments,Kandivali East,Kandivali East,19.21145,72.87372,400,15000,50000,37.5,125
190,1 RK, Apartments,Santacruz East,Santacruz East,19.07937,72.85626,400,24000,75000,60,187.5
191,1 RK, Apartments,Bandra West,Bandra West,19.06069,72.83625,250,40000,100000,160,400
192,1 RK, Apartments,Jvlr jogeshwari east,Jogeshwari East,19.14051,72.84216,350,13000,50000,37.14285714,142.8571429
193,1 RK, Apartments,"Nalasopara West, Nala Sopara",Nalasopara West,19.41834,72.7956,390,4700,20000,12.05128205,51.28205128
194,1 RK, Apartments,"Rokadiya lane, borivali west",Borivali West,19.07598,72.87766,520,18000,100000,34.61538462,192.3076923
195,1 RK, Apartments,Vikhroli West,Vikhroli West,19.10677,72.92254,450,24000,75000,53.33333333,166.6666667
196,1 RK, Apartments,"Monarch Apartments,Asha Nagar Road,Saraf Chaudhary Nagar,Kandivali East",Kandivali East,19.20738,72.86547,350,15000,50000,42.85714286,142.8571429
197,1 RK, Apartments,"Tekdi Vidyasagar School, Nandivli, Dombivli East, Dombivli,",Dombivali East,19.20066,73.08652,575,5300,30000,9.217391304,52.17391304
198,1 RK, Apartments,"Royal Palms Road, Royal Palms Estate, Aarey Colony, Goregaon East",Goregaon East,19.14751,72.893,340,13000,30000,38.23529412,88.23529412
199,1 RK, Apartments,"Poonam Nagar, MMRDA Colony, Jogeshwari East",Jogeshwari East,19.13612,72.87025,350,15000,30000,42.85714286,85.71428571
200,1 RK, Apartments,"2GR,New Prabhadevi Marg,Ameya Society,Prabhadevi",Prabhadevi,19.01379,72.82819,300,25000,100000,83.33333333,333.3333333
201,1 RK, Apartments,"Virar East, Virar",Virar East,19.4609,72.81815,370,4500,20000,12.16216216,54.05405405
202,1 RK, Apartments,"Sindhi Society, Chembur East",Chembur East,19.05111,72.89069,450,25000,100000,55.55555556,222.2222222
203,1 RK, Apartments,"Shivdham Complex, Dindoshi, Malad East",Malad East,19.17594,72.86226,400,18000,60000,45,150
204,1 RK, Apartments,Bandra East,Bandra East,19.06053,72.84935,350,18000,50000,51.42857143,142.8571429
205,1 RK, Apartments,Andheri East,Andheri East,19.1154908,72.8726952,225,17000,30000,75.55555556,133.3333333
206,1 RK, Apartments,"Upper Govind Nagar, Malad East",Malad East,19.17526,72.85369,400,20000,75000,50,187.5
207,1 RK, Apartments,"249,Senapati Bapat Marg,Babasaheb Ambedkar Nagar,Dadar West",Dadar West,19.01544,72.84017,250,23000,50000,92,200
208,1 RK, Apartments,Dadar,Dadar West,19.02132,72.84241,300,20000,50000,66.66666667,166.6666667
209,1 RK, Apartments,"Thakur Village, Kandivali East",Kandivali East,19.19982,72.84259,250,12000,40000,48,160
210,1 RK, Apartments,"Nalasopara West, Nala Sopara",Nalasopara West,19.41834,72.7956,350,4000,25000,11.42857143,71.42857143
211,1 RK, Apartments,"Nalasopara West, Nala Sopara",Nalasopara West,19.41834,72.7956,450,5000,30000,11.11111111,66.66666667
212,1 RK, Apartments,"5,Datta Jagdamba Mandir Marg,Radha Krishna Nagar,Aghadi Nagar,Andheri East",Andheri East,19.12388,72.86086,350,20000,75000,57.14285714,214.2857143
213,1 RK, Apartments,Goregaon East,Goregaon East,19.15515,72.86786,390,17000,50000,43.58974359,128.2051282
214,1 RK, Apartments,IGIDR,Goregaon East,19.16797,72.88035,350,16000,50000,45.71428571,142.8571429
215,1 RK, Apartments,"Thane West, Thane",Thane,19.24447,72.98149,400,9000,60000,22.5,150
216,1 RK, Apartments,Mira ROad East,Mira Road,19.07598,72.87766,550,13000,50000,23.63636364,90.90909091
217,1 RK, Apartments,Goregaon East,Goregaon East,19.15515,72.86786,350,15000,50000,42.85714286,142.8571429
218,1 RK, Apartments,moonlight chs  andheri east 400093,Andheri East,19.07598,72.87766,450,24000,80000,53.33333333,177.7777778
219,1 RK, Apartments,"1403,Taikalwadi Marg,Mainak Wadi,Joshi Vadi,Matunga West",Matunga West,19.02861,72.84356,350,28000,100000,80,285.7142857
220,1 RK, Apartments,Vikhroli West,Vikhroli West,19.10677,72.92254,375,24000,75000,64,200
221,1 RK, Apartments,"Hiranandani Gardens, Powai",Powai,19.11538,72.90914,350,20000,50000,57.14285714,142.8571429
222,1 RK, Apartments,"Thakur Complex, Kandivali East",Kandivali East,19.20954,72.86411,350,13500,40000,38.57142857,114.2857143
223,1 RK, Apartments,"Chandivali Mhada Colony, MHADA Colony, Chandivali, Powai",Chandivali,19.11134,72.89669,400,21000,60000,52.5,150
224,1 RK, Apartments,NA,Jogeshwari West,19.07598,72.87766,400,20000,100000,50,250
225,1 RK, Apartments,"Gokuldham Colony, Goregaon East",Goregaon East,19.1702821,72.8698946,300,10000,50000,33.33333333,166.6666667
226,1 RK, Apartments,Tilak Nagar,Tilak Nagar,19.0682673,72.8973302,400,16000,96000,40,240
227,1 RK, Apartments,Ghatkopar East,Ghatkopar East,19.0759837,72.8776559,320,15000,60000,46.875,187.5
228,1 RK, Apartments,"Viva College Road, Doghar Pada, Vartak Ward, Virar West, Virar",Virar West,19.45684,72.80425,450,5000,25000,11.11111111,55.55555556
229,1 RK, Apartments,Andheri East Westran Express Highway,Andheri East,19.07598,72.87766,320,15000,90000,46.875,281.25
230,1 RK, Apartments,Kandivali West,Kandivali West,19.1998211,72.842594,240,10000,50000,41.66666667,208.3333333
231,1 RK, Apartments,Malad West,Malad West,19.1827551,72.8401539,270,14000,42000,51.85185185,155.5555556
232,1 RK, Apartments,"Kukreja Complex,bhandup west",Bhandup West,19.15145,72.9408,450,18000,100000,40,222.2222222
233,1 RK, Apartments,Naigaon,Naigaon East,19.34291,72.82349,330,4200,20000,12.72727273,60.60606061
234,1 RK, Apartments,"Dombivli West, Dombivli",Dombivali West,19.21576,73.07299,400,6000,40000,15,100
235,1 RK, Apartments,"Sher E Punjab Colony, Andheri East",Andheri East,19.12559,72.86187,355,22000,60000,61.97183099,169.0140845
236,1 RK, Apartments,"703,Link Road,Nl Complex,Dahisar East",Dahisar East,19.25739,72.86832,365,11500,75000,31.50684932,205.4794521
237,1 RK, Apartments,"Tilak Nagar, Parel",Tilak Nagar,18.9940509,72.8509513,250,13000,50000,52,200
238,1 RK, Apartments,"Highway Park E-5, Saraf Chaudhary Nagar, Kandivali East",Kandivali East,19.20887,72.86578,450,16000,50000,35.55555556,111.1111111
239,1 RK, Apartments,Badlapur,Badlapur East,19.16679,73.23679,400,3000,20000,7.5,50
240,1 RK, Apartments,"Near Gaondevi Mandir, Kalwa - 400605",Kalwa,19.07598,72.87766,375,8500,60000,22.66666667,160
241,1 RK, Apartments,"Chandivali Mhada Colony, MHADA Colony, Chandivali, Powai",Chandivali,19.11134,72.89669,400,20000,75000,50,187.5
242,1 RK, Apartments,"Vakola, Santacruz East",Santacruz East,19.0788783,72.8500307,350,20000,100000,57.14285714,285.7142857
243,1 RK, Apartments,NA,Bhayander West,19.07598,72.87766,350,8000,40000,22.85714286,114.2857143
244,1 RK, Apartments,Goregaon East,Goregaon East,19.15515,72.86786,380,25000,75000,65.78947368,197.3684211
245,1 RK, Apartments,Andheri East,Andheri East,19.1154908,72.8726952,407,21500,100000,52.82555283,245.7002457
246,1 RK, Apartments,NA,Powai,19.1197,72.9051,400,23000,69000,57.5,172.5
247,1 RK, Apartments,NA,Malad East,19.1809,72.8575,350,12000,36000,34.28571429,102.8571429
248,1 RK, Apartments,"Mira Road East, Mira Bhayandar",Mira Road,19.28714,72.86884,350,9000,50000,25.71428571,142.8571429
249,1 RK, Apartments,"Thakur Village, Kandivali East",Kandivali East,19.21083,72.87474,336,16000,50000,47.61904762,148.8095238
250,1 RK, Apartments,NA,Malad West,19.1828,72.8402,320,19000,190000,59.375,593.75
251,1 RK, Apartments,NA,Kandivali West,19.1998,72.8426,340,16000,160000,47.05882353,470.5882353
252,1 RK, Apartments,NA,Andheri East,19.1136,72.8697,225,15000,25000,66.66666667,111.1111111
253,1 RK, Apartments,"Nalasopara West, Nala Sopara",Nalasopara West,19.41834,72.7956,365,3899,20000,10.68219178,54.79452055
254,1 RK, Apartments,"Agashi Naka Bus Stop, Agashi Road, Agashi, Virar West, Virar",Virar West,19.46297,72.77625,375,4000,25000,10.66666667,66.66666667
255,1 RK, Apartments,"Phoolpada Road, RJ Nagar, Virar East, Virar",Virar East,19.45507,72.82141,280,2500,10000,8.928571429,35.71428571
256,1 RK, Apartments,"Agashi, Virar West, Virar",Virar West,19.46038,72.77473,375,4000,25000,10.66666667,66.66666667
257,1 RK, Apartments,"Plot No-130,35th Road,Pali Village,Khar West",Bandra West,19.0652,72.8365,255,30000,60000,117.6470588,235.2941176
258,1 RK, Apartments,Breach Candy,Breach Candy,18.97463,72.8065,400,50000,100000,125,250
259,1 RK, Apartments,Powai,Powai,19.11968,72.90508,350,23000,75000,65.71428571,214.2857143
260,1 RK, Apartments,"Chandivali Mhada Colony, MHADA Colony, Chandivali, Powai",Chandivali,19.11134,72.89669,280,17500,30000,62.5,107.1428571
261,1 RK, Apartments,"Virar East, Virar",Virar East,19.4609,72.81815,400,4000,20000,10,50
262,1 RK, Apartments,"Thakur Complex, Kandivali East",Kandivali East,19.20954,72.86411,400,14000,50000,35,125
263,1 RK, Apartments,Goregaon East,Aarey Milk Colony,19.15515,72.86786,425,17000,40000,40,94.11764706
264,1 RK, Apartments,"Azad Nagar Metro Station, Azad Nagar, Andheri West",Andheri West,19.12694,72.83765,400,24000,75000,60,187.5
265,1 RK, Apartments,Prabhadevi,Prabhadevi,19.01585,72.828,350,25000,100000,71.42857143,285.7142857
266,1 RK, Apartments,Malad West,Malad West,19.18275,72.84016,550,15000,60000,27.27272727,109.0909091
267,1 RK, Apartments,"Babulnath, Babulnath, Khareghat Colony, Malabar Hill",Malabar Hill,18.95799,72.80907,400,45000,200000,112.5,500
268,1 RK, Apartments,"Chandivali Mhada Colony, MHADA Colony, Chandivali, Powai",Chandivali,19.11134,72.89669,290,20000,50000,68.96551724,172.4137931
269,1 RK, Apartments,hiranandani gardens powai,Powai,19.07598,72.87766,600,17000,45000,28.33333333,75
270,1 RK, Apartments,"24,Chatrapati Shivaji Raje Complex,Kandivali West",Malad West,19.20195,72.82583,340,16000,50000,47.05882353,147.0588235
271,1 RK, Apartments,"21,Unnat Nagar Road Number 1,Yashwant Nagar,Goregaon West",Goregaon West,19.16521,72.84375,400,21000,50000,52.5,125
272,1 RK, Apartments,Malad West,Malad West,19.18275,72.84016,400,13000,50000,32.5,125
273,1 RK, Apartments,Malad East,Malad East,19.18087,72.85745,350,16000,50000,45.71428571,142.8571429
274,1 RK, Apartments,"Royal Palms Road, Royal Palms Estate, Aarey Colony, Goregaon East",Goregaon East,19.14751,72.893,340,13000,30000,38.23529412,88.23529412
275,1 RK, Apartments,Bandra West,Bandra West,19.06069,72.83625,340,33000,75000,97.05882353,220.5882353
276,1 RK, Apartments,Bandra West,Bandra West,19.06069,72.83625,300,40000,100000,133.3333333,333.3333333
277,1 RK, Apartments,kenwood tower ramdev park mira road,Mira Road,19.08253,72.86424,500,8500,35000,17,70
278,1 RK, Apartments,Lower Parel,Lower Parel West,18.99642,72.83091,300,20000,50000,66.66666667,166.6666667
279,1 RK, Apartments,"Bindra Complex Road, Sunder Nagar, Jogeshwari East",Andheri East,19.12788,72.86922,300,17000,50000,56.66666667,166.6666667
280,1 RK, Apartments,"Virar East, Virar",Virar East,19.4609,72.81815,400,4200,20000,10.5,50
281,1 RK, Apartments,SEVAK APARTMENT,Andheri West,19.12396,72.84351,450,20000,75000,44.44444444,166.6666667
282,1 RK, Apartments,"Lower Parel West, Lower Parel",Lower Parel West,19.000258,72.8238143,300,23000,50000,76.66666667,166.6666667
283,1 RK, Apartments,Goregaon East,Goregaon East,19.15515,72.86786,280,16000,50000,57.14285714,178.5714286
284,1 RK, Apartments,"Municipal Hospital,Saraf Chaudhari Road,Saraf Chaudhary Nagar,Kandivali East",Kandivali East,19.20738,72.86521,350,15000,50000,42.85714286,142.8571429
285,1 RK, Apartments,SHERE PUNJAB CHS NEAR GYMKHANA  ANDHERI EAST 400093,Andheri East,19.11365,72.86974,400,24000,70000,60,175
286,1 RK, Apartments,"Nalasopara West, Nala Sopara",Nalasopara West,19.41834,72.7956,350,4500,25000,12.85714286,71.42857143
287,1 RK, Apartments,"E-18,G Dardi Marg,Guru Teg Bahadur Nagar,Sion",Sion East,19.03481,72.8663,320,15000,50000,46.875,156.25
288,1 RK, Apartments,Mira ROad East,Mira Road,19.07598,72.87766,280,7600,25000,27.14285714,89.28571429
289,1 RK, Apartments,Andheri East,Andheri East,19.11549,72.8727,200,17000,30000,85,150
290,1 RK, Apartments,Vikhroli West,Vikhroli West,19.10677,72.92254,325,24000,75000,73.84615385,230.7692308
291,1 RK, Apartments,"Virar West, Virar",Virar West,19.4618817,72.7776581,350,3500,15000,10,42.85714286
292,1 RK, Apartments,"Corporation Bank, Shakti Nagar, Dahisar East",Dahisar East,19.25986,72.86304,340,11000,60000,32.35294118,176.4705882
293,1 RK, Apartments,"NES Road, Battipada, Bhandup West",Bhandup West,19.14888,72.93547,410,17000,50000,41.46341463,121.9512195
294,1 RK, Apartments,Chembur East,Chembur East,19.0328,72.89635,400,21000,100000,52.5,250
295,1 RK, Apartments,"Chandivali Mhada Colony, MHADA Colony, Chandivali, Powai",Chandivali,19.11134,72.89669,450,20000,75000,44.44444444,166.6666667
296,1 RK, Apartments,Jogeshwari West,Jogeshwari West,19.14051,72.84216,370,16000,100000,43.24324324,270.2702703
297,1 RK, Apartments,"Devidas road, borivali west",Borivali West,19.07598,72.87766,400,16000,100000,40,250
298,1 RK, Apartments,"Upper Govind Nagar, Malad East",Malad East,19.17526,72.85369,370,17000,75000,45.94594595,202.7027027
299,1 RK, Apartments,"Behind Bank of , Kalwa -  400605",Kalwa,19.07598,72.87766,425,8000,50000,18.82352941,117.6470588
300,1 RK, Apartments,NA,Matunga West,19.02856,72.84203,350,25000,100000,71.42857143,285.7142857
301,1 RK, Apartments,Santacruz East,Santacruz East,19.07937,72.8562596,250,17000,50000,68,200
302,1 RK, Apartments,"Mira Road East, Mira Bhayandar",Mira Road,19.28714,72.86884,350,9000,50000,25.71428571,142.8571429
303,1 RK, Apartments,"Bhayandar West, Mira Bhayandar",Bhayander West,19.30178,72.85026,370,7500,40000,20.27027027,108.1081081
304,1 RK, Apartments,Goregaon East,Goregaon East,19.15515,72.86786,655,25000,100000,38.16793893,152.6717557
305,1 RK, Apartments,"SCN Sports Complex, Gaon Devi Road, Saraf Chaudhary Nagar",Kandivali East,19.20874,72.86449,410,15000,80000,36.58536585,195.1219512
306,1 RK, Apartments,Naigaon,Naigaon East,19.34291,72.82349,330,4000,20000,12.12121212,60.60606061
307,1 RK, Apartments,"Tilak Nagar, Parel",Tilak Nagar,18.9940509,72.8509513,250,12000,50000,48,200
308,1 RK, Apartments,sushine apt kandivali,Kandivali East,19.20867,72.85992,450,15000,40000,33.33333333,88.88888889
309,1 RK, Apartments,NA,Nalasopara West,19.4183,72.7956,450,3500,21000,7.777777778,46.66666667
310,1 RK, Apartments,Andheri East,Andheri East,19.1154908,72.8726952,225,15000,25000,66.66666667,111.1111111
311,1 RK, Apartments,"Mahakali Caves Road, Gokul Nandanvan Co-operative Society, Andheri East",Andheri East,19.12375,72.86423,400,20000,70000,50,175
312,1 RK, Apartments,"Nalasopara West, Nala Sopara",Nalasopara West,19.41834,72.7956,375,2710,10000,7.226666667,26.66666667
313,1 RK, Apartments,NA,Andheri East,19.1136,72.8697,408,21500,129000,52.69607843,316.1764706
314,1 RK, Apartments,NA,Malad West,19.1828,72.8402,410,16000,160000,39.02439024,390.2439024
315,1 RK, Apartments,"Thakur Complex, Kandivali East",Kandivali East,19.20954,72.86411,400,14000,50000,35,125
316,1 RK, Apartments,"Veera Desai Industrial Estate, Andheri West",Andheri West,19.13916,72.83456,350,20000,50000,57.14285714,142.8571429
317,1 RK, Apartments,Breach Candy,Breach Candy,18.97463,72.8065,450,50000,100000,111.1111111,222.2222222
318,1 RK, Apartments,Bandra West,Bandra West,19.06069,72.83625,450,32000,95000,71.11111111,211.1111111
319,1 RK, Apartments,Goregaon East,Aarey Milk Colony,19.15515,72.86786,425,17000,40000,40,94.11764706
320,1 RK, Apartments,Saki vihar road,Powai,19.07598,72.87766,400,23000,75000,57.5,187.5
321,1 RK, Apartments,"Chandivali Mhada Colony, MHADA Colony, Chandivali, Powai",Chandivali,19.11134,72.89669,280,16000,50000,57.14285714,178.5714286
322,1 RK, Apartments,"Babulnath, Babulnath, Khareghat Colony, Malabar Hill",Malabar Hill,18.95799,72.80907,450,45000,250000,100,555.5555556
323,1 RK, Apartments,"Powai, Raheja Vihar",Powai,19.11908,72.89512,270,20000,60000,74.07407407,222.2222222
324,1 RK, Apartments,Malad West,Malad West,19.18275,72.84016,450,13000,50000,28.88888889,111.1111111
325,1 RK, Apartments,"Chandivali Mhada Colony, MHADA Colony, Chandivali, Powai",Chandivali,19.11134,72.89669,290,20000,50000,68.96551724,172.4137931
326,1 RK, Apartments,hiranandani gardens powai,Powai,19.11968,72.90508,400,15000,40000,37.5,100
327,1 RK, Apartments,Worli,Worli,18.9872015,72.8290456,350,23000,50000,65.71428571,142.8571429
328,1 RK, Apartments,"Shankheshwar Nagar Phase 3 Road, Nandivali Panchanand, Dombivli East, Dombivli",Dombivali East,19.19343,73.09079,515,4000,25000,7.766990291,48.54368932
329,1 RK, Apartments,NA,Virar East,19.45177,72.81293,360,3800,20000,10.55555556,55.55555556
330,1 RK, Apartments,Bandra West,Bandra West,19.06069,72.83625,250,35000,100000,140,400
331,1 RK, Apartments,"WING A,Mohan Gokhale Road,Yashodham,Goregaon East",Goregaon East,19.16844,72.86504,400,14000,50000,35,125
332,1 RK, Apartments,"Poonam Nagar, Jogeshwari East",Jogeshwari East,19.13731,72.8678,300,17000,35000,56.66666667,116.6666667
333,1 RK, Apartments,"Nagari Niwara Parishad Road, New Mhada Colony, Goregaon East",Goregaon East,19.17122,72.88139,500,15000,100000,30,200
334,1 RK, Apartments,Goregaon East,Goregaon East,19.15515,72.86786,370,16000,50000,43.24324324,135.1351351
335,1 RK, Apartments,"Kanakia Road, Unique Gardens, Beverly Park, Mira Road East, Mira Bhayandar",Mira Road,19.29491,72.87422,366,8000,35000,21.8579235,95.6284153
336,1 RK, Apartments,"Thakur Complex, Kandivali East",Kandivali East,19.20954,72.86411,410,14500,70000,35.36585366,170.7317073
337,1 RK, Apartments,Virar,Virar East,19.45498,72.81195,400,4200,20000,10.5,50
338,1 RK, Apartments,Jogeshwari West,Jogeshwari West,19.14051,72.84216,350,15000,50000,42.85714286,142.8571429
339,1 RK, Apartments,"Chandivali, Powai",Powai,19.11449,72.89639,200,24000,75000,120,375
340,1 RK, Apartments,"Nalasopara West, Nala Sopara",Nalasopara West,19.41834,72.7956,455,4500,25000,9.89010989,54.94505495
341,1 RK, Apartments,Mira Road East,Mira Road,19.07598,72.87766,280,7600,25000,27.14285714,89.28571429
342,1 RK, Apartments,Dadar West,Dadar West,19.0236,72.83781,300,25000,100000,83.33333333,333.3333333
343,1 RK, Apartments,Andheri East,Andheri East,19.1154908,72.8726952,180,16000,35000,88.88888889,194.4444444
344,1 RK, Apartments,moonlight chs mumbi andheri east 40093,Andheri East,19.11365,72.86974,410,24000,80000,58.53658537,195.1219512
345,1 RK, Apartments,"Bhayandar West, Mira Bhayandar",Bhayander West,19.30178,72.85026,350,7000,30000,20,85.71428571
346,1 RK, Apartments,Raheja Township,Malad East,19.18021,72.85716,350,17000,50000,48.57142857,142.8571429
347,1 RK, Apartments,pimpleshwaer society,Bhandup West,19.07598,72.87766,400,16000,50000,40,125
348,1 RK, Apartments,"Near Gaondevi Maidan, Kalwa - 400605",Kalwa,19.07598,72.87766,375,7500,50000,20,133.3333333
349,1 RK, Apartments,"Jinal Coop Hsg Society, 90 Feet Road, Gokul Garden VWX, Kandivali East",Kandivali East,19.21138,72.86195,310,15000,60000,48.38709677,193.5483871
350,1 RK, Apartments,Naigaon,Naigaon East,19.34291,72.82349,330,3500,20000,10.60606061,60.60606061
351,1 RK, Apartments,"Sher E Punjab Road, Andheri East",Andheri East,19.11549,72.8727,370,20000,70000,54.05405405,189.1891892
352,1 RK, Apartments,Goregaon East,Goregaon East,19.15515,72.86786,380,21000,50000,55.26315789,131.5789474
353,1 RK, Apartments,"E k t a Nagar 1st Lane, Ekta Nagar, Mandala, Mankhurd",Mankhurd East,19.0471932,72.9285272,350,7000,35000,20,100
354,1 RK, Apartments,"Chandivali Mhada Colony, MHADA Colony, Chandivali, Powai",Chandivali,19.11134,72.89669,280,20000,75000,71.42857143,267.8571429
355,1 RK, Apartments,Andheri East,Andheri East,19.1154908,72.8726952,401,21000,100000,52.36907731,249.3765586
356,1 RK, Apartments,Kandivali East,Kandivali East,19.21145,72.87372,600,15000,60000,25,100
357,1 RK, Apartments,"Royal Palms Road, Royal Palms Estate, Aarey Colony, Goregaon East",Aarey Milk Colony,19.14751,72.893,340,13000,30000,38.23529412,88.23529412
358,1 RK, Apartments,"Mira Road East, Mira Bhayandar",Mira Road,19.28714,72.86884,350,9000,50000,25.71428571,142.8571429
359,1 RK, Apartments,Andheri East,Andheri East,19.1154908,72.8726952,225,14500,25000,64.44444444,111.1111111
360,1 RK, Apartments,NA,Malad West,19.1828,72.8402,350,16000,160000,45.71428571,457.1428571
361,1 RK, Apartments,NA,Kandivali West,19.1998,72.8426,340,14000,140000,41.17647059,411.7647059
362,1 RK, Apartments,"Chandivali Mhada Colony, MHADA Colony, Chandivali, Powai",Chandivali,19.11134,72.89669,280,15000,35000,53.57142857,125
363,1 RK, Apartments,Ramesh Nagar Amboli Andheri West,Andheri West,19.07598,72.87766,350,18000,75000,51.42857143,214.2857143
364,1 RK, Apartments,"Babulnath, Babulnath, Khareghat Colony, Malabar Hill",Malabar Hill,18.95799,72.80907,450,45000,200000,100,444.4444444
365,1 RK, Apartments,Bandra West,Bandra West,19.06069,72.83625,400,32000,100000,80,250
366,1 RK, Apartments,"Thakur Complex, Kandivali East",Kandivali East,19.20954,72.86411,350,13000,30000,37.14285714,85.71428571
367,1 RK, Apartments,"Chandivali Road, MHADA Colony, Chandivali, Powai",Chandivali,19.11276,72.89761,290,17000,40000,58.62068966,137.9310345
368,1 RK, Apartments,Goregaon East,Aarey Milk Colony,19.15515,72.86786,344,16000,40000,46.51162791,116.2790698
369,1 RK, Apartments,"4-101,MMRDA Colony,Poonam Nagar,Jogeshwari East",Andheri East,19.13751,72.86826,300,15000,30000,50,100
370,1 RK, Apartments,"Shankheshwar Nagar Phase 3 Road, Nandivali Panchanand, Dombivli East, Dombivli",Dombivali East,19.20572,73.09553,525,4000,25000,7.619047619,47.61904762
371,1 RK, Apartments,Malad West,Malad West,19.18275,72.84016,350,12000,50000,34.28571429,142.8571429
372,1 RK, Apartments,"Orbit Eternia, NM Joshi Marg, Saidham Nagar, Lower Parel",Lower Parel West,19.00598,72.8311,390,22000,50000,56.41025641,128.2051282
373,1 RK, Apartments,"Royal Palms Road, Royal Palms Estate, Aarey Colony, Goregaon East",Goregaon East,19.14751,72.893,340,13000,30000,38.23529412,88.23529412
374,1 RK, Apartments,Colaba,Colaba,18.9067,72.81471,300,50000,100000,166.6666667,333.3333333
375,1 RK, Apartments,"Virar East, Virar",Virar East,19.4609,72.81815,360,3800,20000,10.55555556,55.55555556
376,1 RK, Apartments,"Chembur Naka, Chembur East",Chembur East,19.04399,72.91025,400,17000,100000,42.5,250
377,1 RK, Apartments,NA,Chandivali,19.07598,72.87766,400,20000,70000,50,175
378,1 RK, Apartments,Andheri East,Andheri East,19.11549,72.8727,350,23000,50000,65.71428571,142.8571429
379,1 RK, Apartments,hiranandani,Powai,19.11968,72.90508,600,13000,50000,21.66666667,83.33333333
380,1 RK, Apartments,Goregaon East,Goregaon East,19.15515,72.86786,380,15000,50000,39.47368421,131.5789474
381,1 RK, Apartments,Bandra West,Bandra West,19.06069,72.83625,225,35000,100000,155.5555556,444.4444444
382,1 RK, Apartments,"2,1st MMC Cross Road,Uma Society,New Dinkar Co Operative Housing Society,Mahim",Kandivali East,19.03944,72.8459,310,14000,50000,45.16129032,161.2903226
383,1 RK, Apartments,"Nalasopara West, Nala Sopara",Nalasopara West,19.41834,72.7956,350,4500,25000,12.85714286,71.42857143
384,1 RK, Apartments,Mira Road East,Mira Road,19.07598,72.87766,270,7500,25000,27.77777778,92.59259259
385,1 RK, Apartments,Vikhroli West,Vikhroli West,19.10677,72.92254,375,24000,75000,64,200
386,1 RK, Apartments,Andheri East,Andheri East,19.11549,72.8727,200,16000,25000,80,125
387,1 RK, Apartments,"Srushti, Mira Road East, Mira Bhayandar,",Mira Road,19.27018,72.86856,325,8000,50000,24.61538462,153.8461538
388,1 RK, Apartments,"Sher-E- Punjab, Andheri East",Andheri East,19.11549,72.8727,450,19000,60000,42.22222222,133.3333333
389,1 RK, Apartments,"Bhusar Ali, Kalwa",Kalwa West,19.07598,72.87766,375,7500,40000,20,106.6666667
390,1 RK, Apartments,Goregaon East,Goregaon East,19.1551485,72.8678551,330,15000,50000,45.45454545,151.5151515
391,1 RK, Apartments,swami samarath,Bhandup West,19.07598,72.87766,400,16000,50000,40,125
392,1 RK, Apartments,Virar,Virar East,19.45636,72.79246,390,4000,20000,10.25641026,51.28205128
393,1 RK, Apartments,NA,Bhayander West,19.30178,72.85026,300,6500,30000,21.66666667,100
394,1 RK, Apartments,Goregaon East,Goregaon East,19.15515,72.86786,350,17000,50000,48.57142857,142.8571429
395,1 RK, Apartments,"Chandivali Mhada Colony, MHADA Colony, Chandivali, Powai",Chandivali,19.11134,72.89669,400,20000,75000,50,187.5
396,1 RK, Apartments,NA,Thakur Village,19.2108,72.8747,260,15000,60000,57.69230769,230.7692308
397,1 RK, Apartments,Andheri East,Andheri East,19.1154908,72.8726952,402,21000,100000,52.23880597,248.7562189
398,1 RK, Apartments,"Mira Road East, Mira Bhayandar",Mira Road,19.28714,72.86884,300,8000,30000,26.66666667,100
399,1 RK, Apartments,"Gokul Garden, Saraf Chaudhary Nagar, Kandivali East",Kandivali East,19.21025,72.86301,350,14500,40000,41.42857143,114.2857143
400,1 RK, Apartments,Goregaon East,Goregaon East,19.15515,72.86786,480,20000,50000,41.66666667,104.1666667
401,1 RK, Apartments,NA,Kandivali West,19.1998,72.8426,340,12000,120000,35.29411765,352.9411765
402,1 RK, Apartments,NA,Malad West,19.1828,72.8402,400,16000,160000,40,400
403,1 RK, Apartments,NA,Andheri East,19.1136,72.8697,225,14500,25000,64.44444444,111.1111111
404,1 RK, Apartments,"D.N.Nagar, Andheri West",Andheri West,19.12293,72.83013,600,18000,50000,30,83.33333333
405,1 RK, Apartments,Colaba,Colaba,18.9067,72.81471,450,45000,200000,100,444.4444444
406,1 RK, Apartments,"Thakur Complex, Kandivali East",Kandivali East,19.20954,72.86411,500,13000,75000,26,150
407,1 RK, Apartments,Goregaon West,Goregaon West,19.16293,72.83924,350,12000,50000,34.28571429,142.8571429
408,1 RK, Apartments,Goregaon East,Aarey Milk Colony,19.15096,72.88313,344,16000,40000,46.51162791,116.2790698
409,1 RK, Apartments,NA,Chandivali,19.07598,72.87766,400,16000,60000,40,150
410,1 RK, Apartments,"Virar East, Virar",Virar East,19.4609,72.81815,300,3500,15000,11.66666667,50
411,1 RK, Apartments,Colaba,Colaba,18.9067,72.81471,300,45000,100000,150,333.3333333
412,1 RK, Apartments,"Elphinstone Road, Saidham Nagar, Parel",Elphinstone Road,19.0077897,72.8339576,350,20000,50000,57.14285714,142.8571429
413,1 RK, Apartments,"Off Carter Road, Hanuman Nagar, Pali Hill",Pali Hill,19.07166,72.82204,400,30000,75000,75,187.5
414,1 RK, Apartments,"Chandivali Mhada Colony, MHADA Colony, Chandivali, Powai",Chandivali,19.11134,72.89669,280,15000,40000,53.57142857,142.8571429
415,1 RK, Apartments,"Aajde Gaon, Sagarli Gaon, Dombivli East, Dombivli,",Dombivali East,19.21502,73.10093,450,4000,30000,8.888888889,66.66666667
416,1 RK, Apartments,"74,Mahatma Jyotiba Phule Road,Nabard Nagar,Saraf Chaudhary Nagar,Kandivali East",Kandivali East,19.20621,72.86558,350,14000,50000,40,142.8571429
417,1 RK, Apartments,NA,Bandra West,19.07598,72.87766,200,35000,35000,175,175
418,1 RK, Apartments,"Chandivali, Powai",Powai,19.10749,72.90176,225,13000,35000,57.77777778,155.5555556
419,1 RK, Apartments,"D-414,Santacruz Electronic Export Processing Zone,Andheri East",Andheri East,19.12433,72.87055,300,15000,50000,50,166.6666667
420,1 RK, Apartments,"C-101,MHADA Colony 19,Powai",Powai,19.11836,72.90354,425,23000,60000,54.11764706,141.1764706
421,1 RK, Apartments,Goregaon East,Goregaon East,19.15515,72.86786,150,14000,50000,93.33333333,333.3333333
422,1 RK, Apartments,mira road east,Mira Road,19.07598,72.87766,270,7500,25000,27.77777778,92.59259259
423,1 RK, Apartments,Andheri East,Andheri East,19.1154908,72.8726952,200,16000,30000,80,150
424,1 RK, Apartments,Virar,Virar East,19.45636,72.79246,390,4000,20000,10.25641026,51.28205128
425,1 RK, Apartments,"Nalasopara West, Nala Sopara",Nalasopara West,19.41834,72.7956,390,4000,25000,10.25641026,64.1025641
426,1 RK, Apartments,"Nagari Niwara Parishad Road, New Mhada Colony, Goregaon East",Goregaon East,19.170862,72.8814072,500,13000,50000,26,100
427,1 RK, Apartments,"Usha Complex Society Road, Vasant Nagar, Bhandup West",Bhandup West,19.14875,72.94181,420,16000,50000,38.0952381,119.047619
428,1 RK, Apartments,"Marol, Andheri East",Andheri East,19.1173,72.88404,300,20000,60000,66.66666667,200
429,1 RK, Apartments,Malad East,Malad East,19.18087,72.85745,330,16500,50000,50,151.5151515
430,1 RK, Apartments,"Near Bank of Baroda, Station Road, Kalwa",Kalwa West,19.07598,72.87766,375,7500,50000,20,133.3333333
431,1 RK, Apartments,"Mira Road East, Mira Bhayandar",Mira Road,19.28714,72.86884,350,8000,35000,22.85714286,100
432,1 RK, Apartments,"Chandivali, Powai",Chandivali,19.10749,72.90176,280,19000,50000,67.85714286,178.5714286
433,1 RK, Apartments,Kandivali East,Kandivali East,19.21145,72.87372,450,14000,40000,31.11111111,88.88888889
434,1 RK, Apartments,Goregaon East,Goregaon East,19.15515,72.86786,470,20000,50000,42.55319149,106.3829787
435,1 RK, Apartments,"Sher- E- Punjab Colony, Andheri East",Andheri East,19.11549,72.8727,395,19000,60000,48.10126582,151.8987342
436,1 RK, Apartments,Kandivali East,Kandivali East,19.2114533,72.8737217,410,15000,50000,36.58536585,121.9512195
437,1 RK, Apartments,Andheri East,Andheri East,19.1154908,72.8726952,225,14000,25000,62.22222222,111.1111111
438,1 RK, Apartments,NA,Kandivali West,19.1998,72.8426,340,11000,110000,32.35294118,323.5294118
439,1 RK, Apartments,"Royal Palms Road, Royal Palms Estate, Aarey Colony, Goregaon East",Aarey Milk Colony,19.14751,72.893,340,13000,30000,38.23529412,88.23529412
440,1 RK, Apartments,Near Azad nagar Metro Andheri west,Andheri West,19.07598,72.87766,300,18000,50000,60,166.6666667
441,1 RK, Apartments,Colaba,Colaba,18.9067,72.81471,400,45000,100000,112.5,250
442,1 RK, Apartments,Bandra West,Bandra West,19.06069,72.83625,400,28000,80000,70,200
443,1 RK, Apartments,"Virar East, Virar",Virar East,19.4609,72.81815,450,3500,20000,7.777777778,44.44444444
444,1 RK, Apartments,Goregaon East,Aarey Milk Colony,19.15515,72.86786,344,16000,50000,46.51162791,145.3488372
445,1 RK, Apartments,"Thakur Complex, Kandivali East",Kandivali East,19.20954,72.86411,500,13000,60000,26,120
446,1 RK, Apartments,"Royal Palms Road, Royal Palms Estate, Aarey Colony, Goregaon East",Goregaon East,19.14751,72.893,340,13000,30000,38.23529412,88.23529412
447,1 RK, Apartments,"Monarch Apartments,Asha Nagar Road,Saraf Chaudhary Nagar,Kandivali East",Kandivali East,19.20726,72.86525,400,14000,50000,35,125
448,1 RK, Apartments,Khar West,Khar West,19.07169,72.83413,300,35000,100000,116.6666667,333.3333333
449,1 RK, Apartments,Colaba,Colaba,18.9067,72.81471,450,45000,200000,100,444.4444444
450,1 RK, Apartments,Virar,Virar East,19.45636,72.79246,385,4000,20000,10.38961039,51.94805195
451,1 RK, Apartments,"Powai Vihar Complex, IIT Area, Powai",Powai,19.11959,72.90402,350,22999,75000,65.71142857,214.2857143
452,1 RK, Apartments,Andheri East,Andheri East,19.1154908,72.8726952,180,16000,30000,88.88888889,166.6666667
453,1 RK, Apartments,"Chandivali, Powai",Powai,19.10749,72.90176,400,18000,200000,45,500
454,1 RK, Apartments,"D-414,Santacruz Electronic Export Processing Zone,Andheri East",Andheri East,19.12441,72.87042,300,15000,50000,50,166.6666667
455,1 RK, Apartments,"Gokuldham Colony, Goregaon East",Goregaon East,19.17028,72.8699,230,12000,40000,52.17391304,173.9130435
456,1 RK, Apartments,"Poonam Nagar, Mira Road East, Mira Bhayandar",Mira Road,19.27893,72.86447,275,7500,25000,27.27272727,90.90909091
457,1 RK, Apartments,Goregaon East,Goregaon East,19.15515,72.86786,250,13000,30000,52,120
458,1 RK, Apartments,neha building,Bhandup West,19.07598,72.87766,420,16000,50000,38.0952381,119.047619
459,1 RK, Apartments,"Nalasopara West, Nala Sopara",Nalasopara West,19.41834,72.7956,280,4000,25000,14.28571429,89.28571429
460,1 RK, Apartments,"Lower Parel West, Lower Parel",Lower Parel West,19.000258,72.8238143,350,20000,50000,57.14285714,142.8571429
461,1 RK, Apartments,"Chandivali Road, MHADA Colony, Chandivali, Powai",Chandivali,19.10749,72.90176,290,15000,50000,51.72413793,172.4137931
462,1 RK, Apartments,"Shanti Nagar, Andheri East",Andheri East,19.12019,72.86378,300,16000,50000,53.33333333,166.6666667
463,1 RK, Apartments,Malad East,Malad East,19.18087,72.85745,350,16500,50000,47.14285714,142.8571429
464,1 RK, Apartments,Goregaon East,Goregaon East,19.15515,72.86786,380,18000,30000,47.36842105,78.94736842
465,1 RK, Apartments,Andheri East,Andheri East,19.1154908,72.8726952,415,19500,100000,46.98795181,240.9638554
466,1 RK, Apartments,Mira Bhayandar,Mira Road,19.29523,72.85439,350,7500,30000,21.42857143,85.71428571
467,1 RK, Apartments,Kandivali East,Kandivali East,19.21145,72.87372,465,14000,50000,30.10752688,107.5268817
468,1 RK, Apartments,"Dattani Park, Dattani Park, Thakur Village, Kandivali East",Kandivali East,19.2115624,72.8686719,410,15000,60000,36.58536585,146.3414634
469,1 RK, Apartments,Andheri East,Andheri East,19.1154908,72.8726952,225,13500,25000,60,111.1111111
470,1 RK, Apartments,NA,Kandivali West,19.1998,72.8426,340,10000,100000,29.41176471,294.1176471
471,1 RK, Apartments,"Vahatuk Nagar Co-operative Housing Society, Vahatuk Nagar, Jogeshwari West",Andheri West,19.07598,72.87766,350,18000,50000,51.42857143,142.8571429
472,1 RK, Apartments,"Thakur Village, Kandivali East",Kandivali East,19.21083,72.87474,500,12000,50000,24,100
473,1 RK, Apartments,Bandra West,Bandra West,19.06069,72.83625,450,28000,95000,62.22222222,211.1111111
474,1 RK, Apartments,Colaba,Colaba,18.9067,72.81471,450,45000,200000,100,444.4444444
475,1 RK, Apartments,NA,Virar East,19.4609,72.81815,400,3500,25000,8.75,62.5
476,1 RK, Apartments,Andheri East,Andheri East,19.11549,72.8727,250,15000,30000,60,120
477,1 RK, Apartments,"Royal Palms Road, Royal Palms Estate, Aarey Colony, Goregaon East",Goregaon East,19.14751,72.893,340,13000,30000,38.23529412,88.23529412
478,1 RK, Apartments,Colaba,Colaba,18.9067,72.81471,350,45000,100000,128.5714286,285.7142857
479,1 RK, Apartments,Khar West,Khar West,19.07169,72.83413,250,35000,100000,140,400
480,1 RK, Apartments,"Chandivali Mhada Colony, MHADA Colony, Chandivali, Powai",Chandivali,19.11134,72.89669,290,14000,40000,48.27586207,137.9310345
481,1 RK, Apartments,Goregaon East,Aarey Milk Colony,19.15515,72.86786,344,16000,50000,46.51162791,145.3488372
482,1 RK, Apartments,Goregaon East,Goregaon East,19.15515,72.86786,150,12000,50000,80,333.3333333
483,1 RK, Apartments,"Municipal Hospital,Saraf Chaudhari Road,Saraf Chaudhary Nagar,Kandivali East",Kandivali East,19.20746,72.86543,325,14000,50000,43.07692308,153.8461538
484,1 RK, Apartments,"Virar East, Virar",Virar East,19.4609,72.81815,385,4000,20000,10.38961039,51.94805195
485,1 RK, Apartments,Andheri East,Andheri East,19.1154908,72.8726952,225,16000,35000,71.11111111,155.5555556
486,1 RK, Apartments,"Mind Space, Mindspace, Malad West",Malad West,19.17531,72.83175,450,16000,50000,35.55555556,111.1111111
487,1 RK, Apartments,"Poonam Nagar, Mira Road East, Mira Bhayandar",Mira Road,19.28714,72.86884,275,7500,25000,27.27272727,90.90909091
488,1 RK, Apartments,Vikhroli West,Vikhroli West,19.10677,72.92254,325,22002,60000,67.69846154,184.6153846
489,1 RK, Apartments,"Nalasopara West, Nala Sopara",Nalasopara West,19.42048,72.81369,400,4000,30000,10,75
490,1 RK, Apartments,neha building,Bhandup West,19.07598,72.87766,400,16000,50000,40,125
491,1 RK, Apartments,"mahakali  road, andheri east ,  400093",Andheri East,19.11549,72.8727,275,16000,40000,58.18181818,145.4545455
492,1 RK, Apartments,"Chandivali, Powai",Chandivali,19.10749,72.90176,280,17500,40000,62.5,142.8571429
493,1 RK, Apartments,Goregaon East,Goregaon East,19.15515,72.86786,300,17000,25000,56.66666667,83.33333333
494,1 RK, Apartments,"Saraf Chaudhary Nagar, Kandivali East",Kandivali East,19.20824,72.86558,310,13500,50000,43.5483871,161.2903226
495,1 RK, Apartments,Mira Bhayandar,Mira Road,19.28714,72.86884,350,7500,30000,21.42857143,85.71428571
496,1 RK, Apartments,NA,Andheri East,19.1136,72.8697,350,19000,114000,54.28571429,325.7142857
497,1 RK, Apartments,NA,Kandivali West,19.1998,72.8426,350,10000,100000,28.57142857,285.7142857
498,1 RK, Apartments,Andheri East,Andheri East,19.1154908,72.8726952,225,13500,25000,60,111.1111111
499,1 RK, Apartments,NA,Kandivali East,19.2115,72.8737,410,14800,45000,36.09756098,109.7560976
500,1 RK, Apartments,"Jai Bhavani Mata Road, Amboli, Andheri West",Andheri West,19.12977,72.84266,350,18000,50000,51.42857143,142.8571429
501,1 RK, Apartments,"Thakur Complex, Kandivali East",Kandivali East,19.20954,72.86411,350,12000,30000,34.28571429,85.71428571
502,1 RK, Apartments,sangam bhavan,Colaba,19.03305,73.02966,350,45000,100000,128.5714286,285.7142857
503,1 RK, Apartments,Goregaon East,Aarey Milk Colony,19.15515,72.86786,344,16000,35000,46.51162791,101.744186
504,1 RK, Apartments,Andheri East,Andheri East,19.11549,72.8727,350,17500,50000,50,142.8571429
505,1 RK, Apartments,Colaba,Colaba,18.9067,72.81471,450,45000,200000,100,444.4444444
506,1 RK, Apartments,"Virar East, Virar",Virar East,19.23989,72.85967,300,3500,15000,11.66666667,50
507,1 RK, Apartments,Bandra West,Bandra West,19.06069,72.83625,300,30000,100000,100,333.3333333
508,1 RK, Apartments,Virar,Virar East,19.45636,72.79246,350,3500,15000,10,42.85714286
509,1 RK, Apartments,"20th Road, Khar West",Khar Danda,19.07431,72.82789,440,28000,75000,63.63636364,170.4545455
510,1 RK, Apartments,"Chandivali Mhada Colony, MHADA Colony, Chandivali, Powai",Chandivali,19.11134,72.89669,290,14000,40000,48.27586207,137.9310345
511,1 RK, Apartments,NA,Andheri East,19.07598,72.87766,300,15000,30000,50,100
512,1 RK, Apartments,"Shivdham Complex, Dindoshi, Malad East",Malad East,19.17594,72.86226,330,16000,50000,48.48484848,151.5151515
513,1 RK, Apartments,Mira Road East,Mira Road,19.07598,72.87766,280,7300,25000,26.07142857,89.28571429
514,1 RK, Apartments,"Nalasopara West, Nala Sopara",Nalasopara West,19.41834,72.7956,400,4000,20000,10,50
515,1 RK, Apartments,"Monarch Apartments,Asha Nagar Road,Saraf Chaudhary Nagar,Kandivali East",Kandivali West,19.20726,72.86525,350,13500,50000,38.57142857,142.8571429
516,1 RK, Apartments,Andheri East,Andheri East,19.1154908,72.8726952,200,15000,35000,75,175
517,1 RK, Apartments,"Usha Complex Society Road, Vasant Nagar, Bhandup West",Bhandup West,19.14875,72.94181,420,16000,100000,38.0952381,238.0952381
518,1 RK, Apartments,Powai,Powai,19.11968,72.90508,350,22000,75000,62.85714286,214.2857143
519,1 RK, Apartments,Goregaon East,Goregaon East,19.15515,72.86786,380,17000,50000,44.73684211,131.5789474
520,1 RK, Apartments,"poonam nagar, andheri east,  400093",Andheri East,19.03305,73.02966,300,16000,40000,53.33333333,133.3333333
521,1 RK, Apartments,Kandivali East,Kandivali East,19.21145,72.87372,350,12500,40000,35.71428571,114.2857143
522,1 RK, Apartments,"Royal Palms Road, Royal Palms Estate, Aarey Colony, Goregaon East",Aarey Milk Colony,19.14751,72.893,340,13000,30000,38.23529412,88.23529412
523,1 RK, Apartments,NA,Andheri East,19.1136,72.8697,406,19000,114000,46.79802956,280.7881773
524,1 RK, Apartments,NA,Kandivali West,19.1998,72.8426,340,9500,95000,27.94117647,279.4117647
525,1 RK, Apartments,"MIDC Central Road, Shanti Nagar, Andheri East",Andheri East,19.1178099,72.8640178,225,13000,40000,57.77777778,177.7777778
526,1 RK, Apartments,NA,Kandivali East,19.2115,72.8737,410,14500,40000,35.36585366,97.56097561
527,1 RK, Apartments,"Jai Bhavani Mata Road, Amboli, Andheri West",Andheri West,19.12977,72.84266,600,16000,50000,26.66666667,83.33333333
528,1 RK, Apartments,Andheri East,Andheri East,19.11549,72.8727,400,17000,50000,42.5,125
529,1 RK, Apartments,Ashirvad,Andheri East,19.13398,72.86668,350,15000,30000,42.85714286,85.71428571
530,1 RK, Apartments,"Thakur Complex, Kandivali East",Kandivali East,19.20954,72.86411,350,12000,30000,34.28571429,85.71428571
531,1 RK, Apartments,"Babulnath, Khareghat Colony, Malabar Hill",Malabar Hill,18.95799,72.80907,450,45000,200000,100,444.4444444
532,1 RK, Apartments,Breach Candy,Breach Candy,18.97463,72.8065,400,40000,100000,100,250
533,1 RK, Apartments,"Virar East, Virar",Virar East,19.4609,72.81815,400,3500,20000,8.75,50
534,1 RK, Apartments,"Royal Palms Road, Royal Palms Estate, Aarey Colony, Goregaon East",Goregaon East,19.14751,72.893,340,13000,30000,38.23529412,88.23529412
535,1 RK, Apartments,"Chandivali Road, MHADA Colony, Chandivali, Powai",Chandivali,19.10749,72.90176,290,13000,40000,44.82758621,137.9310345
536,1 RK, Apartments,Khar West,Khar West,19.07169,72.83413,300,30000,75000,100,250
537,1 RK, Row House,Khar West,Khar West,19.07169,72.83413,350,26000,0,74.28571429,0
538,1 RK, Apartments,Goregaon East,Aarey Milk Colony,19.15096,72.88313,425,16000,50000,37.64705882,117.6470588
539,1 RK, Apartments,"Usha Complex Society Road, Vasant Nagar, Bhandup West",Bhandup West,19.15099,72.93153,420,16000,50000,38.0952381,119.047619
540,1 RK, Apartments,Mira Road East,Mira Road,19.07598,72.87766,280,7300,25000,26.07142857,89.28571429
541,1 RK, Apartments,"Maruti Towers,Thakur Complex Road,Nabard Nagar,Saraf Chaudhary Nagar,Kandivali East",Kandivali East,19.20637,72.86547,350,12500,50000,35.71428571,142.8571429
542,1 RK, Apartments,"Nalasopara West, Nala Sopara",Nalasopara West,19.41834,72.7956,355,4000,25000,11.26760563,70.42253521
543,1 RK, Apartments,goregaon east oberoi mall,Goregaon East,19.08442,72.86493,350,15000,50000,42.85714286,142.8571429
544,1 RK, Apartments,"SCN Cooprative Housing Society, Saraf Chaudhary Nagar, Kandivali East",Kandivali East,19.20937,72.86445,365,12500,30000,34.24657534,82.19178082
545,1 RK, Apartments,Goregaon East,Goregaon East,19.15515,72.86786,380,17000,50000,44.73684211,131.5789474
546,1 RK, Apartments,NA,Andheri East,19.1136,72.8697,400,18500,111000,46.25,277.5
547,1 RK, Apartments,Kandivali East,Kandivali East,19.2114533,72.8737217,410,14500,50000,35.36585366,121.9512195
548,1 RK, Apartments,NA,Kandivali West,19.1998,72.8426,350,9500,95000,27.14285714,271.4285714
549,1 RK, Apartments,NA,Andheri East,19.1136,72.8697,225,13000,40000,57.77777778,177.7777778
550,1 RK, Apartments,Ratan Nagar Andheri West,Andheri West,19.08249,72.87389,600,15000,15000,25,25
551,1 RK, Apartments,"Thakur Complex, Kandivali East",Kandivali East,19.20954,72.86411,350,12000,30000,34.28571429,85.71428571
552,1 RK, Apartments,"A/B,Shivneri Vasahat Road,Indira Nagar,Jogeshwari East",Jogeshwari East,19.13371,72.86919,350,14000,30000,40,85.71428571
553,1 RK, Apartments,"Babulnath, Dadi Sheth Wadi, Malabar Hill",Malabar Hill,18.95806,72.8093,450,45000,200000,100,444.4444444
554,1 RK, Apartments,Khar West,Khar West,19.07169,72.83413,425,25000,75000,58.82352941,176.4705882
555,1 RK, Apartments,Colaba,Colaba,18.9067,72.81471,350,40000,100000,114.2857143,285.7142857
556,1 RK, Apartments,Goregaon East,Aarey Milk Colony,19.15096,72.88313,344,16000,40000,46.51162791,116.2790698
557,1 RK, Apartments,"Virar East, Virar",Virar East,19.4609,72.81815,350,3500,25000,10,71.42857143
558,1 RK, Apartments,pimpleshvar chs ltd,Bhandup West,19.15099,72.93153,400,15000,50000,37.5,125
559,1 RK, Apartments,NA,Bandra West,19.07598,72.87766,225,30000,60000,133.3333333,266.6666667
560,1 RK, Apartments,"8,Mahatma Jyotiba Phule Road,Nabard Nagar,Saraf Chaudhary Nagar,Kandivali East",Kandivali East,19.20645,72.86568,350,12000,50000,34.28571429,142.8571429
561,1 RK, Apartments,"Chandivali Road, MHADA Colony, Chandivali, Powai",Chandivali,19.11276,72.89761,280,13000,40000,46.42857143,142.8571429
562,1 RK, Apartments,Mira Road East,Mira Road,19.07598,72.87766,275,7200,25000,26.18181818,90.90909091
563,1 RK, Apartments,Malad East,Malad East,19.18087,72.85745,350,14000,50000,40,142.8571429
564,1 RK, Apartments,"Chandivali Mhada Colony, MHADA Colony, Chandivali, Powai",Chandivali,19.11134,72.89669,400,16500,50000,41.25,125
565,1 RK, Apartments,"Dattani Park, Dattani Park, Thakur Village, Kandivali East",Kandivali East,19.21156,72.86868,450,14500,50000,32.22222222,111.1111111
566,1 RK, Apartments,"Andheri East, Shanti Nagar",Andheri East,19.12011,72.86447,300,15000,40000,50,133.3333333
567,1 RK, Apartments,Goregaon East,Goregaon East,19.15515,72.86786,380,17000,50000,44.73684211,131.5789474
568,1 RK, Apartments,NA,Andheri East,19.1136,72.8697,407,18500,111000,45.45454545,272.7272727
569,1 RK, Apartments,"Gokul Garden VWX, Kandivali East",Kandivali East,19.20926,72.86115,350,12500,30000,35.71428571,85.71428571
570,1 RK, Apartments,NA,Malad West,19.1828,72.8402,250,8500,85000,34,340
571,1 RK, Apartments,"Royal Palms Road, Royal Palms Estate, Aarey Colony, Goregaon East",Aarey Milk Colony,19.14751,72.893,340,13000,30000,38.23529412,88.23529412
572,1 RK, Apartments,NA,Andheri East,19.1136,72.8697,225,12800,20000,56.88888889,88.88888889
573,1 RK, Apartments,Tardeo,Tardeo,18.96815,72.81224,400,30000,90000,75,225
574,1 RK, Apartments,Andheri East,Andheri East,19.11549,72.8727,360,16000,40000,44.44444444,111.1111111
575,1 RK, Apartments,Bandra West,Bandra West,19.07598,72.87766,320,25000,60000,78.125,187.5
576,1 RK, Apartments,Goregaon East,Aarey Milk Colony,19.15515,72.86786,344,16000,40000,46.51162791,116.2790698
577,1 RK, Apartments,"Thakur Complex, Kandivali East",Kandivali East,19.1998211,72.842594,350,12000,40000,34.28571429,114.2857143
578,1 RK, Apartments,"Virar East, Virar",Virar East,19.4609,72.81815,400,3000,25000,7.5,62.5
579,1 RK, Apartments,Colaba,Colaba,18.9067,72.81471,400,45000,100000,112.5,250
580,1 RK, Apartments,Bandra West,Bandra West,19.06069,72.83625,225,27000,75000,120,333.3333333
581,1 RK, Apartments,Goregaon East,Goregaon East,19.15515,72.86786,300,14000,50000,46.66666667,166.6666667
582,1 RK, Apartments,"Ramnath Yadav Chawl,Mahakali Caves Road,Sher E Punjab Colony,Andheri East",Andheri East,19.12859,72.86819,285,14000,50000,49.12280702,175.4385965
583,1 RK, Apartments,"74,Mahatma Jyotiba Phule Road,Nabard Nagar,Saraf Chaudhary Nagar,Kandivali East",Kandivali East,19.20629,72.86547,350,11000,50000,31.42857143,142.8571429
584,1 RK, Apartments,Mira Road East,Mira Road,19.07957,72.88248,275,7200,25000,26.18181818,90.90909091
585,1 RK, Apartments,keshvaji nagar,Bhandup West,19.07598,72.87766,400,14000,75000,35,187.5
586,1 RK, Apartments,"Shanti Nagar, Andheri East",Andheri East,19.11549,72.8727,255,14500,40000,56.8627451,156.8627451
587,1 RK, Apartments,Goregaon East,Goregaon East,19.15515,72.86786,380,17000,50000,44.73684211,131.5789474
588,1 RK, Apartments,"Royal Palms Road, Royal Palms Estate, Aarey Colony, Goregaon East",Aarey Milk Colony,19.14751,72.893,340,13000,30000,38.23529412,88.23529412
589,1 RK, Apartments,Kandivali East,Kandivali East,19.2114533,72.8737217,350,12500,50000,35.71428571,142.8571429
590,1 RK, Apartments,NA,Andheri East,19.1136,72.8697,391,18500,111000,47.31457801,283.887468
591,1 RK, Apartments,Andheri East,Andheri East,19.1154908,72.8726952,225,12800,20000,56.88888889,88.88888889
592,1 RK, Apartments,NA,Kandivali East,19.2115,72.8737,410,14200,45000,34.63414634,109.7560976
593,1 RK, Apartments,"Thakur Complex, Kandivali East",Kandivali East,19.20954,72.86411,310,11000,40000,35.48387097,129.0322581
594,1 RK, Apartments,Bandra West,Bandra West,19.06069,72.83625,300,24000,55000,80,183.3333333
595,1 RK, Apartments,"13,MMRDA Colony,Poonam Nagar,Jogeshwari East",Jogeshwari East,19.13623,72.86659,300,14000,30000,46.66666667,100
596,1 RK, Apartments,"Virar East, Virar",Virar East,19.4609,72.81815,400,3000,15000,7.5,37.5
597,1 RK, Apartments,Goregaon East,Aarey Milk Colony,19.15515,72.86786,344,16000,40000,46.51162791,116.2790698
598,1 RK, Apartments,Fort,Fort Area,18.93526,72.83715,250,25000,100000,100,400
599,1 RK, Apartments,Colaba,Colaba,18.9067,72.81471,400,45000,100000,112.5,250
600,1 RK, Apartments,Goregaon East,Goregaon East,19.15515,72.86786,300,13000,50000,43.33333333,166.6666667
601,1 RK, Apartments,Bandra West,Bandra West,19.06069,72.83625,225,27000,100000,120,444.4444444
602,1 RK, Apartments,GANESH CO O SOCIETY,Bhandup West,19.15099,72.93153,400,14000,50000,35,125
603,1 RK, Apartments,"mahakali , andheri east,  400093",Andheri East,19.11549,72.8727,275,14500,40000,52.72727273,145.4545455
604,1 RK, Apartments,Goregaon East,Goregaon East,19.15515,72.86786,380,17000,50000,44.73684211,131.5789474
605,1 RK, Apartments,"Chandivali, Powai",Chandivali,19.10749,72.90176,280,15000,50000,53.57142857,178.5714286
606,1 RK, Apartments,"Dattani Park, Dattani Park, Thakur Village, Kandivali East",Kandivali East,19.2115624,72.8686719,410,14000,40000,34.14634146,97.56097561
607,1 RK, Apartments,"Royal Palms Road, Royal Palms Estate, Aarey Colony, Goregaon East",Aarey Milk Colony,19.14751,72.893,340,13000,30000,38.23529412,88.23529412
608,1 RK, Apartments,"301-D,Gokul Garden VWX,Kandivali East",Kandivali East,19.21032,72.86243,350,12500,50000,35.71428571,142.8571429
609,1 RK, Apartments,NA,Andheri East,19.1136,72.8697,385,18500,111000,48.05194805,288.3116883
610,1 RK, Apartments,Andheri East,Andheri East,19.1154908,72.8726952,225,12500,20000,55.55555556,88.88888889
611,1 RK, Apartments,"57,Mahakali Caves Road,Sunder Nagar,Jogeshwari East",Andheri East,19.12801,72.86819,980,12500,12500,12.75510204,12.75510204
612,1 RK, Apartments,"Virar East, Virar",Virar East,19.4609,72.81815,400,3000,15000,7.5,37.5
613,1 RK, Apartments,"Thakur Complex, Kandivali East",Kandivali East,19.20954,72.86411,310,11000,40000,35.48387097,129.0322581
614,1 RK, Apartments,Goregaon East,Aarey Milk Colony,19.15515,72.86786,347,16000,35000,46.10951009,100.8645533
615,1 RK, Apartments,Fort,Fort Area,18.93526,72.83715,300,25000,100000,83.33333333,333.3333333
616,1 RK, Apartments,Colaba,Colaba,18.9067,72.81471,600,45000,150000,75,250
617,1 RK, Apartments,"Pali Naka Road, Pali Hill",Pali Hill,19.06289,72.82601,300,20000,60000,66.66666667,200
618,1 RK, Apartments,Bandra West,Bandra West,19.06069,72.83625,225,25000,50000,111.1111111,222.2222222
619,1 RK, Apartments,Malad East,Malad East,19.18087,72.85745,350,13000,50000,37.14285714,142.8571429
620,1 RK, Apartments,PAUL CHEMBER BHANDUP WEST,Bhandup West,19.07598,72.87766,375,13000,50000,34.66666667,133.3333333
621,1 RK, Apartments,"Shanti Nagar, Shanti Nagar, Andheri East",Andheri East,19.11549,72.8727,325,14000,30000,43.07692308,92.30769231
622,1 RK, Apartments,"Dattani Park Road, Dattani Park, Thakur Village, Kandivali East",Kandivali East,19.21229,72.86927,450,14000,50000,31.11111111,111.1111111
623,1 RK, Apartments,"Chandivali, Powai",Chandivali,19.10749,72.90176,480,15000,75000,31.25,156.25
624,1 RK, Apartments,Goregaon East,Goregaon East,19.15515,72.86786,380,17000,50000,44.73684211,131.5789474
625,1 RK, Apartments,NA,Andheri East,19.1136,72.8697,405,17500,105000,43.20987654,259.2592593
626,1 RK, Apartments,Kandivali East,Kandivali East,19.21145,72.87372,350,12500,30000,35.71428571,85.71428571
627,1 RK, Apartments,"Royal Palms Road, Royal Palms Estate, Aarey Colony, Goregaon East",Aarey Milk Colony,19.14751,72.893,340,13000,30000,38.23529412,88.23529412
628,1 RK, Apartments,NA,Andheri East,19.1136,72.8697,225,12500,20000,55.55555556,88.88888889
629,1 RK, Apartments,"Thakur Complex, Kandivali East",Kandivali East,19.20954,72.86411,310,11000,30000,35.48387097,96.77419355
630,1 RK, Apartments,"57, Mahakali Caves Road, Sunder Nagar, Jogeshwari East",Andheri East,19.12798,72.86823,400,12000,12000,30,30
631,1 RK, Apartments,Goregaon East,Aarey Milk Colony,19.15515,72.86786,344,16000,30000,46.51162791,87.20930233
632,1 RK, Apartments,"Virar (E), Virar East, Virar,",Virar East,19.4609,72.81815,350,3000,25000,8.571428571,71.42857143
633,1 RK, Apartments,"Royal Palms Road, Royal Palms Estate, Aarey Colony, Goregaon East",Goregaon East,19.14751,72.893,340,13000,30000,38.23529412,88.23529412
634,1 RK, Apartments,Grant Road,Grant Road East,18.963,72.81757,450,45000,150000,100,333.3333333
635,1 RK, Apartments,Bandra West,Bandra West,19.06069,72.83625,300,25000,50000,83.33333333,166.6666667
636,1 RK, Apartments,barkha,Bhandup West,19.15099,72.93153,420,13000,50000,30.95238095,119.047619
637,1 RK, Apartments,"Upper Govind Nagar, Malad East",Malad East,19.17526,72.85369,350,13000,50000,37.14285714,142.8571429
638,1 RK, Apartments,"mahada colony poonam nagar, andheri east,  400093",Andheri East,19.11549,72.8727,250,14000,40000,56,160
639,1 RK, Apartments,"Dattani Park, Dattani Park, Thakur Village, Kandivali East",Kandivali East,19.21156,72.86868,410,14000,50000,34.14634146,121.9512195
640,1 RK, Apartments,Andheri East poonam nagar,Andheri East,19.1154908,72.8726952,275,12500,25000,45.45454545,90.90909091
641,1 RK, Apartments,"NESCO, Goregaon East",Goregaon East,19.15027,72.85303,380,17000,50000,44.73684211,131.5789474
642,1 RK, Apartments,"Chandivali, Powai",Chandivali,19.10749,72.90176,280,14500,30000,51.78571429,107.1428571
643,1 RK, Apartments,NA,Andheri East,19.1136,72.8697,370,17500,52500,47.2972973,141.8918919
644,1 RK, Apartments,Kandivali East,Kandivali East,19.21145,72.87372,350,12500,50000,35.71428571,142.8571429
645,1 RK, Apartments,"Mahakali Caves Road, Subhash Nagar, Andheri East",Andheri East,19.12403,72.86433,300,12000,12000,40,40
646,1 RK, Apartments,NA,Virar East,19.07598,72.87766,300,3000,10000,10,33.33333333
647,1 RK, Apartments,"Thakur Village, Kandivali East",Kandivali East,19.21083,72.87474,300,11000,30000,36.66666667,100
648,1 RK, Apartments,Goregaon East,Aarey Milk Colony,19.15096,72.88313,344,16000,35000,46.51162791,101.744186
649,1 RK, Apartments,"Babulnath, Babulnath, Khareghat Colony, Malabar Hill",Malabar Hill,18.95799,72.80907,400,45000,150000,112.5,375
650,1 RK, Apartments,"Dheeraj Savera, Borivali East",Borivali East,19.21766,72.87101,360,14000,50000,38.88888889,138.8888889
651,1 RK, Apartments,Khar West,Khar West,19.07169,72.83413,225,25000,50000,111.1111111,222.2222222
652,1 RK, Apartments,"Upper Govind Nagar,Malad East",Malad East,19.18053,72.85784,300,13000,50000,43.33333333,166.6666667
653,1 RK, Apartments,HAPPY HOME,Bhandup West,19.07598,72.87766,350,12000,100000,34.28571429,285.7142857
654,1 RK, Apartments,"Shanti Nagar, Andheri East",Andheri East,19.11365,72.86974,270,14000,40000,51.85185185,148.1481481
655,1 RK, Apartments,"Chandivali, Powai",Chandivali,19.10749,72.90176,280,14000,30000,50,107.1428571
656,1 RK, Apartments,"Nesco Colony, Goregaon East",Goregaon East,19.15027,72.85303,380,17000,50000,44.73684211,131.5789474
657,1 RK, Apartments,NA,Andheri East,19.1136,72.8697,372,17500,52500,47.04301075,141.1290323
658,1 RK, Apartments,"Royal Palms Road, Royal Palms Estate, Aarey Colony, Goregaon East",Aarey Milk Colony,19.14751,72.893,340,13000,30000,38.23529412,88.23529412
659,1 RK, Apartments,Kandivali East,Kandivali East,19.21145,72.87372,350,12500,50000,35.71428571,142.8571429
660,1 RK, Apartments,NA,Andheri East,19.1136,72.8697,180,12200,25000,67.77777778,138.8888889
661,1 RK, Apartments,"Virar East, Virar",Virar East,19.4609,72.81815,400,3000,15000,7.5,37.5
662,1 RK, Apartments,"Thakur Complex, Kandivali East",Kandivali East,19.20954,72.86411,300,11000,40000,36.66666667,133.3333333
663,1 RK, Apartments,"Royal Palms Road, Royal Palms Estate, Aarey Colony, Goregaon East",Goregaon East,19.14751,72.893,340,13000,30000,38.23529412,88.23529412
664,1 RK, Apartments,Bandra West,Bandra West,19.06069,72.83625,225,25000,75000,111.1111111,333.3333333
665,1 RK, Apartments,Goregaon East,Aarey Milk Colony,19.15515,72.86786,344,13000,30000,37.79069767,87.20930233
666,1 RK, Apartments,Lower Parel,Lower Parel East,18.99275,72.83107,400,45000,150000,112.5,375
667,1 RK, Apartments,"shanti nagar , nr. pepar box,  andheri east,  400093",Andheri East,19.08073,72.88549,300,13500,30000,45,100
668,1 RK, Apartments,jayshree apartment,Bhandup West,19.07598,72.87766,300,10000,40000,33.33333333,133.3333333
669,1 RK, Apartments,Malad East,Malad East,19.18087,72.85745,225,12000,50000,53.33333333,222.2222222
670,1 RK, Apartments,Goregaon East,Goregaon East,19.15515,72.86786,380,17000,25000,44.73684211,65.78947368
671,1 RK, Apartments,"Chandivali, Powai",Chandivali,19.10749,72.90176,280,14000,30000,50,107.1428571
672,1 RK, Apartments,NA,Andheri East,19.1136,72.8697,395,17000,102000,43.03797468,258.2278481
673,1 RK, Apartments,"A6-3,Saraf Chaudhary Nagar,Kandivali East",Kandivali East,19.20847,72.86594,350,12500,50000,35.71428571,142.8571429
674,1 RK, Apartments,Andheri East,Andheri East,19.1154908,72.8726952,225,12200,25000,54.22222222,111.1111111
675,1 RK, Apartments,NA,Kandivali East,19.2115,72.8737,330,14000,45000,42.42424242,136.3636364
676,1 RK, Apartments,Goregaon East,Aarey Milk Colony,19.15515,72.86786,425,13000,30000,30.58823529,70.58823529
677,1 RK, Apartments,"Virar East, Virar",Virar East,19.4609,72.81815,400,3000,20000,7.5,50
678,1 RK, Apartments,"Royal Palms Road, Royal Palms Estate, Aarey Colony, Goregaon East",Goregaon East,19.14751,72.893,340,13000,30000,38.23529412,88.23529412
679,1 RK, Apartments,Khar West,Khar West,19.07169,72.83413,250,25000,75000,100,300
680,1 RK, Apartments,Marine Lines,Marine Lines,18.94309,72.82718,400,45000,150000,112.5,375
681,1 RK, Apartments,Goregaon East,Goregaon East,19.15515,72.86786,400,12000,50000,30,125
682,1 RK, Apartments,"Andheri East, Shanti Nagar  400093,",Andheri East,19.11549,72.8727,300,13500,35000,45,116.6666667
683,1 RK, Apartments,gortegaon e,Goregaon East,19.07598,72.87766,380,17000,25000,44.73684211,65.78947368
684,1 RK, Apartments,"Chandivali, Powai",Chandivali,19.10749,72.90176,280,14000,30000,50,107.1428571
685,1 RK, Apartments,"Gayatri Avenue Road,Asha Nagar,Kandivali East",Kandivali East,19.21504,72.86319,350,12000,40000,34.28571429,114.2857143
686,1 RK, Apartments,NA,Andheri East,19.1136,72.8697,380,17000,102000,44.73684211,268.4210526
687,1 RK, Apartments,Andheri East,Andheri East,19.1154908,72.8726952,180,12200,25000,67.77777778,138.8888889
688,1 RK, Apartments,NA,Kandivali East,19.2115,72.8737,410,14000,50000,34.14634146,121.9512195
689,1 RK, Apartments,"Virar East, Virar",Virar East,19.4609,72.81815,400,3000,15000,7.5,37.5
690,1 RK, Apartments,"Nepean Sea Road, Navshanti Nagar, Malabar Hill",Napean Sea Road,18.95709,72.79977,400,45000,150000,112.5,375
691,1 RK, Apartments,"Royal Palms Road, Royal Palms Estate, Aarey Colony, Goregaon East",Goregaon East,19.14751,72.893,340,13000,30000,38.23529412,88.23529412
692,1 RK, Apartments,Malad East,Malad East,19.18087,72.85745,225,12000,30000,53.33333333,133.3333333
693,1 RK, Apartments,Goregaon East,Goregaon East,19.15515,72.86786,380,17000,25000,44.73684211,65.78947368
694,1 RK, Apartments,Kandivali East,Kandivali East,19.21145,72.87372,370,12000,30000,32.43243243,81.08108108
695,1 RK, Apartments,"poonam nagar , andheri east,  400093",Andheri East,19.11549,72.8727,250,13500,30000,54,120
696,1 RK, Apartments,Kandivali East,Kandivali East,19.2114533,72.8737217,410,14000,50000,34.14634146,121.9512195
697,1 RK, Apartments,"Chandivali, Powai",Chandivali,19.10749,72.90176,280,14000,30000,50,107.1428571
698,1 RK, Apartments,NA,Andheri East,19.1136,72.8697,410,16500,99000,40.24390244,241.4634146
699,1 RK, Apartments,Andheri East,Andheri East,19.1154908,72.8726952,225,12000,15000,53.33333333,66.66666667
700,1 RK, Apartments,"Virar East, Virar",Virar East,19.4609,72.81815,310,3000,15000,9.677419355,48.38709677
701,1 RK, Apartments,Malabar Hill,Malabar Hill,18.95427,72.80132,400,45000,150000,112.5,375
702,1 RK, Apartments,"Royal Palms Road, Royal Palms Estate, Aarey Colony, Goregaon East",Goregaon East,19.14751,72.893,340,13000,30000,38.23529412,88.23529412
703,1 RK, Apartments,Malad East,Malad East,19.08086,72.86727,225,12000,50000,53.33333333,222.2222222
704,1 RK, Apartments,GOREGAON E,Goregaon East,19.07598,72.87766,300,16500,25000,55,83.33333333
705,1 RK, Apartments,Kandivali East,Kandivali East,19.2114533,72.8737217,410,14000,40000,34.14634146,97.56097561
706,1 RK, Apartments,"C-4,Saraf Chaudhary Nagar,Kandivali East",Kandivali East,19.20758,72.86525,350,12000,30000,34.28571429,85.71428571
707,1 RK, Apartments,"Chandivali, Powai",Chandivali,19.10749,72.90176,280,14000,30000,50,107.1428571
708,1 RK, Apartments,NA,Andheri East,19.1136,72.8697,385,16000,96000,41.55844156,249.3506494
709,1 RK, Apartments,NA,Andheri East,19.1136,72.8697,225,12000,15000,53.33333333,66.66666667
710,1 RK, Apartments,"Virar East, Virar",Virar East,19.4609,72.81815,300,3000,15000,10,50
711,1 RK, Apartments,"Gateway of , Apollo Bandar, Colaba",Colaba,18.92194,72.83457,400,45000,150000,112.5,375
712,1 RK, Apartments,"Royal Palms Road, Royal Palms Estate, Aarey Colony, Goregaon East",Goregaon East,19.14751,72.893,340,13000,30000,38.23529412,88.23529412
713,1 RK, Apartments,Malad East,Malad East,19.18087,72.85745,225,12000,50000,53.33333333,222.2222222
714,1 RK, Apartments,"Andheri East, Shanti Nagar",Andheri East,19.12011,72.86447,315,13000,40000,41.26984127,126.984127
715,1 RK, Apartments,Kandivali East,Kandivali East,19.21145,72.87372,350,12000,30000,34.28571429,85.71428571
716,1 RK, Apartments,"Chandivali, Powai",Chandivali,19.10749,72.90176,280,14000,30000,50,107.1428571
717,1 RK, Apartments,"Saraf Chaudhary Nagar, Kandivali East",Kandivali East,19.20824,72.86558,330,14000,50000,42.42424242,151.5151515
718,1 RK, Apartments,Goregaon East,Goregaon East,19.15515,72.86786,380,16500,50000,43.42105263,131.5789474
719,1 RK, Apartments,NA,Andheri East,19.1136,72.8697,325,15500,93000,47.69230769,286.1538462
720,1 RK, Apartments,NA,Andheri East,19.1136,72.8697,225,11800,20000,52.44444444,88.88888889
721,1 RK, Apartments,"Virar East, Virar",Virar East,19.4609,72.81815,280,2500,10000,8.928571429,35.71428571
722,1 RK, Apartments,"Charni Road Railway Station, Girgaon",Charni Road East,18.95175,72.81837,400,45000,150000,112.5,375
723,1 RK, Apartments,Raheja Township,Malad East,19.18021,72.85716,225,12000,30000,53.33333333,133.3333333
724,1 RK, Apartments,"Dattani Park Road, Dattani Park, Thakur Village, Kandivali East",Kandivali East,19.21233,72.86931,410,14000,40000,34.14634146,97.56097561
725,1 RK, Apartments,"poonam nagar, andheri east,  400093",Andheri East,19.11549,72.8727,250,13000,30000,52,120
726,1 RK, Apartments,"The Hub Mall, Cama Industrial Estate, Goregaon East",Goregaon East,19.1548,72.85625,380,16500,50000,43.42105263,131.5789474
727,1 RK, Apartments,Kandivali East,Kandivali East,19.21145,72.87372,360,12000,30000,33.33333333,83.33333333
728,1 RK, Apartments,"Chandivali, Powai",Chandivali,19.10749,72.90176,280,14000,30000,50,107.1428571
729,1 RK, Apartments,NA,Andheri East,19.1136,72.8697,350,15500,93000,44.28571429,265.7142857
730,1 RK, Apartments,"Royal Palms Road, Royal Palms Estate, Aarey Colony, Goregaon East",Aarey Milk Colony,19.14751,72.893,340,13000,30000,38.23529412,88.23529412
731,1 RK, Apartments,Andheri East,Andheri East,19.1154908,72.8726952,225,11800,20000,52.44444444,88.88888889
732,1 RK, Apartments,"Royal Palms Road, Royal Palms Estate, Aarey Colony, Goregaon East",Goregaon East,19.14751,72.893,340,13000,30000,38.23529412,88.23529412
733,1 RK, Apartments,Nariman Point,Nariman Point,18.92557,72.82422,400,45000,150000,112.5,375
734,1 RK, Apartments,Raheja Township,Malad East,19.18021,72.85716,225,12000,30000,53.33333333,133.3333333
735,1 RK, Apartments,"mahakali ,mahakali caves road,  andheri east,  400093",Andheri East,19.11365,72.86974,270,13000,30000,48.14814815,111.1111111
736,1 RK, Apartments,Goregaon East,Goregaon East,19.15515,72.86786,380,16000,50000,42.10526316,131.5789474
737,1 RK, Apartments,NA,Thakur Village,19.2108,72.8747,260,14000,50000,53.84615385,192.3076923
738,1 RK, Apartments,"B-33,Saraf Chaudhary Nagar,Kandivali East",Kandivali East,19.20951,72.86462,360,12000,30000,33.33333333,83.33333333
739,1 RK, Apartments,"Chandivali, Powai",Chandivali,19.10749,72.90176,280,14000,30000,50,107.1428571
740,1 RK, Apartments,Andheri East,Andheri East,19.1154908,72.8726952,225,11500,15000,51.11111111,66.66666667
741,1 RK, Apartments,"Royal Palms Road, Royal Palms Estate, Aarey Colony, Goregaon East",Goregaon East,19.14751,72.893,340,13000,30000,38.23529412,88.23529412
742,1 RK, Apartments,Colaba,Colaba,18.9067,72.81471,450,45000,200000,100,444.4444444
743,1 RK, Apartments,SRA building malad east,Malad East,19.18087,72.85745,500,12000,50000,24,100
744,1 RK, Apartments,"mahakali caves road, andheri  east,  400093",Andheri East,19.07598,72.87766,300,12500,30000,41.66666667,100
745,1 RK, Apartments,Goregaon East,Goregaon East,19.15515,72.86786,370,16000,30000,43.24324324,81.08108108
746,1 RK, Apartments,NA,Thakur Village,19.2108,72.8747,330,14000,35000,42.42424242,106.0606061
747,1 RK, Apartments,NA,Kandivali East,19.19982,72.84259,350,12000,30000,34.28571429,85.71428571
748,1 RK, Apartments,"Chandivali, Powai",Chandivali,19.10749,72.90176,280,14000,30000,50,107.1428571
749,1 RK, Apartments,NA,Andheri East,19.1136,72.8697,225,11500,25000,51.11111111,111.1111111
750,1 RK, Apartments,"Royal Palms Road, Royal Palms Estate, Aarey Colony, Goregaon East",Goregaon East,19.14751,72.893,340,13000,30000,38.23529412,88.23529412
751,1 RK, Apartments,"Charni Road Railway Station, Girgaon",Charni Road East,18.95175,72.81837,450,45000,200000,100,444.4444444
752,1 RK, Apartments,"4,Shivneri Vasahat Road,Poonam Nagar,Jogeshwari East",Andheri East,19.13449,72.86809,275,11500,20000,41.81818182,72.72727273
753,1 RK, Apartments,Malad East,Malad East,19.18087,72.85745,225,11500,50000,51.11111111,222.2222222
754,1 RK, Apartments,"Dattani Park Road, Dattani Park",Kandivali East,19.21233,72.86931,450,14000,50000,31.11111111,111.1111111
755,1 RK, Apartments,Goregaon East,Goregaon East,19.15515,72.86786,380,16000,60000,42.10526316,157.8947368
756,1 RK, Apartments,"Thakur Complex, Kandivali East",Kandivali East,19.20954,72.86411,360,12000,30000,33.33333333,83.33333333
757,1 RK, Apartments,"poonam nagar,  andheri east,  400093",Andheri East,19.11549,72.8727,250,12000,30000,48,120
758,1 RK, Apartments,"Chandivali, Powai",Chandivali,19.10749,72.90176,280,14000,30000,50,107.1428571
759,1 RK, Apartments,"Shah Housing Society, Malad East",Malad East,19.18393,72.85722,300,11000,50000,36.66666667,166.6666667
760,1 RK, Apartments,Worli,Worli,18.9872,72.82905,400,40000,150000,100,375
761,1 RK, Apartments,"Thakur Complex, Kandivali East",Kandivali East,19.20954,72.86411,400,14000,50000,35,125
762,1 RK, Apartments,Goregaon East,Goregaon East,19.15515,72.86786,380,16000,60000,42.10526316,157.8947368
763,1 RK, Apartments,"poonam nagar, andheri east,  400093",Andheri East,19.11549,72.8727,250,12000,30000,48,120
764,1 RK, Apartments,"Thakur Complex, Kandivali East",Kandivali East,19.20954,72.86411,350,12000,30000,34.28571429,85.71428571
765,1 RK, Apartments,"Chandivali, Powai",Chandivali,19.10749,72.90176,280,14000,30000,50,107.1428571
766,1 RK, Apartments,"Aarey Powai Road, Mahatma Phule Nagar, Aarey Colony, Goregaon East",Aarey Milk Colony,19.13921,72.8944,340,13000,30000,38.23529412,88.23529412
767,1 RK, Apartments,NA,Andheri East,19.1136,72.8697,225,10800,20000,48,88.88888889
768,1 RK, Apartments,NA,Malabar Hill,19.07598,72.87766,450,40000,200000,88.88888889,444.4444444
769,1 RK, Apartments,"Royal Palms Road, Royal Palms Estate, Aarey Colony, Goregaon East",Goregaon East,19.14751,72.893,340,13000,30000,38.23529412,88.23529412
770,1 RK, Apartments,"mmrda colony, poonam nagar, andheri east,  400093",Andheri East,19.11549,72.8727,250,11500,30000,46,120
771,1 RK, Apartments,GOREGAON E,Goregaon East,19.07598,72.87766,380,16000,20000,42.10526316,52.63157895
772,1 RK, Apartments,thakur complex,Kandivali East,19.19982,72.84259,350,12000,30000,34.28571429,85.71428571
773,1 RK, Apartments,"Chandivali, Powai",Chandivali,19.10749,72.90176,280,14000,30000,50,107.1428571
774,1 RK, Apartments,NA,Thakur Village,19.2108,72.8747,330,13500,40000,40.90909091,121.2121212
775,1 RK, Apartments,Andheri East,Andheri East,19.1154908,72.8726952,225,10800,25000,48,111.1111111
776,1 RK, Apartments,Malabar Hill,Malabar Hill,18.95427,72.80132,450,40000,200000,88.88888889,444.4444444
777,1 RK, Apartments,"Royal Palms Road, Royal Palms Estate, Aarey Colony, Goregaon East",Goregaon East,19.14751,72.893,340,13000,30000,38.23529412,88.23529412
778,1 RK, Apartments,"mmrda colony, poonam nagar ,  andheri east  400093",Andheri East,19.11549,72.8727,255,11000,30000,43.1372549,117.6470588
779,1 RK, Apartments,Goregaon East,Goregaon East,19.15515,72.86786,380,16000,50000,42.10526316,131.5789474
780,1 RK, Apartments,Kandivali East,Kandivali East,19.21145,72.87372,375,12000,30000,32,80
781,1 RK, Apartments,"Chandivali, Powai",Chandivali,19.10749,72.90176,280,14000,30000,50,107.1428571
782,1 RK, Apartments,NA,Thakur Village,19.2108,72.8747,330,13000,45000,39.39393939,136.3636364
783,1 RK, Apartments,Andheri East,Andheri East,19.1154908,72.8726952,225,10500,20000,46.66666667,88.88888889
784,1 RK, Apartments,Grant Road,Grant Road West,18.963,72.81757,400,40000,250000,100,625
785,1 RK, Apartments,"poonam nagar, andheri east,  400093",Andheri East,19.11549,72.8727,255,10500,25000,41.17647059,98.03921569
786,1 RK, Apartments,Goregaon East,Goregaon East,19.15515,72.86786,380,15000,40000,39.47368421,105.2631579
787,1 RK, Apartments,NA,Thakur Village,19.2108,72.8747,260,13000,40000,50,153.8461538
788,1 RK, Apartments,"Jinal Coop Hsg Society, 90 Feet Road, Gokul Garden VWX, Kandivali East",Kandivali East,19.21138,72.86195,350,11500,30000,32.85714286,85.71428571
789,1 RK, Apartments,"Chandivali, Powai",Chandivali,19.10749,72.90176,280,14000,30000,50,107.1428571
790,1 RK, Apartments,"Royal Palms Road, Royal Palms Estate, Aarey Colony, Goregaon East",Aarey Milk Colony,19.14751,72.893,340,13000,30000,38.23529412,88.23529412
791,1 RK, Apartments,NA,Andheri East,19.1136,72.8697,225,10500,20000,46.66666667,88.88888889
792,1 RK, Apartments,"Royal Palms Road, Royal Palms Estate, Aarey Colony, Goregaon East",Goregaon East,19.14751,72.893,340,13000,30000,38.23529412,88.23529412
793,1 RK, Apartments,Grant Road,Grant Road East,19.07598,72.87766,400,40000,200000,100,500
794,1 RK, Apartments,"13,Aarey Colony,Goregaon East",Goregaon East,19.21157,72.82666,380,15000,30000,39.47368421,78.94736842
795,1 RK, Apartments,"Saraf Chaudhary Nagar, Kandivali East",Kandivali East,19.20824,72.86558,330,13000,40000,39.39393939,121.2121212
796,1 RK, Apartments,"Jinal Coop Hsg Society, 90 Feet Road, Gokul Garden VWX, Kandivali East",Kandivali East,19.21138,72.86195,350,11500,30000,32.85714286,85.71428571
797,1 RK, Apartments,"Chandivali, Powai",Chandivali,19.10749,72.90176,280,14000,30000,50,107.1428571
798,1 RK, Apartments,NA,Andheri East,19.1136,72.8697,225,10300,20000,45.77777778,88.88888889
799,1 RK, Apartments,Grant Road,Grant Road East,18.963,72.81757,400,40000,200000,100,500
800,1 RK, Apartments,Kandivali East,Kandivali East,19.21145,72.87372,370,13000,50000,35.13513514,135.1351351
801,1 RK, Apartments,Goregaon East,Goregaon East,19.15515,72.86786,300,15000,20000,50,66.66666667
802,1 RK, Apartments,Kandivali East,Kandivali East,19.21145,72.87372,360,11500,40000,31.94444444,111.1111111
803,1 RK, Apartments,"Chandivali, Powai",Chandivali,19.10749,72.90176,280,14000,30000,50,107.1428571
804,1 RK, Apartments,"Royal Palms Road, Royal Palms Estate, Aarey Colony, Goregaon East",Aarey Milk Colony,19.14751,72.893,340,13000,30000,38.23529412,88.23529412
805,1 RK, Apartments,Andheri East,Andheri East,19.1154908,72.8726952,225,10300,20000,45.77777778,88.88888889
806,1 RK, Apartments,Grant Road,Grant Road West,18.963,72.81757,400,40000,250000,100,625
807,1 RK, Apartments,"1-A,Galaxy E Wing,Gokul Garden VWX,Kandivali East",Kandivali East,19.20919,72.86054,410,13000,50000,31.70731707,121.9512195
808,1 RK, Apartments,Goregaon East,Goregaon East,19.15515,72.86786,380,15000,25000,39.47368421,65.78947368
809,1 RK, Apartments,Kandivali East,Kandivali East,19.21145,72.87372,350,11500,40000,32.85714286,114.2857143
810,1 RK, Apartments,"Chandivali, Powai",Chandivali,19.10749,72.90176,280,14000,30000,50,107.1428571
811,1 RK, Apartments,Andheri East,Andheri East,19.1154908,72.8726952,225,10000,20000,44.44444444,88.88888889
812,1 RK, Apartments,"Royal Palms Road, Royal Palms Estate, Aarey Colony, Goregaon East",Aarey Milk Colony,19.14751,72.893,340,13000,30000,38.23529412,88.23529412
813,1 RK, Apartments,"Royal Palms Road, Royal Palms Estate, Aarey Colony, Goregaon East",Goregaon East,19.14751,72.893,340,13000,30000,38.23529412,88.23529412
814,1 RK, Apartments,Grant Road,Grant Road West,18.963,72.81757,350,40000,250000,114.2857143,714.2857143
815,1 RK, Apartments,swapnapurti jhula pada,Kandivali East,19.07598,72.87766,250,13000,30000,52,120
816,1 RK, Apartments,Kandivali East,Kandivali East,19.21145,72.87372,350,11500,30000,32.85714286,85.71428571
817,1 RK, Apartments,Goregaon East,Goregaon East,19.15515,72.86786,300,15000,25000,50,83.33333333
818,1 RK, Apartments,"Chandivali, Powai",Chandivali,19.10749,72.90176,280,14000,30000,50,107.1428571
819,1 RK, Apartments,Andheri East,Andheri East,19.1154908,72.8726952,225,9600,20000,42.66666667,88.88888889
820,1 RK, Apartments,"Royal Palms Road, Royal Palms Estate, Aarey Colony, Goregaon East",Goregaon East,19.14751,72.893,340,13000,30000,38.23529412,88.23529412
821,1 RK, Apartments,Grant Road,Grant Road West,18.963,72.81757,400,40000,250000,100,625
822,1 RK, Apartments,GOREGAON[ E],Goregaon East,19.15515,72.86786,300,15000,25000,50,83.33333333
823,1 RK, Apartments,"Chandivali Mhada Colony, MHADA Colony, Chandivali, Powai",Chandivali,19.11134,72.89669,280,14000,30000,50,107.1428571
824,1 RK, Apartments,Kandivali East,Kandivali East,19.21145,72.87372,310,11000,50000,35.48387097,161.2903226
825,1 RK, Apartments,NA,Andheri East,19.1136,72.8697,225,9600,20000,42.66666667,88.88888889
826,1 RK, Apartments,NA,Kandivali East,19.2115,72.8737,410,13000,50000,31.70731707,121.9512195
827,1 RK, Apartments,Grant Road,Grant Road West,18.963,72.81757,400,40000,250000,100,625
828,1 RK, Apartments,Goregaon East,Goregaon East,19.15515,72.86786,380,15000,50000,39.47368421,131.5789474
829,1 RK, Apartments,"Chandivali Road, MHADA Colony, Chandivali, Powai",Chandivali,19.11276,72.89761,280,14000,30000,50,107.1428571
830,1 RK, Apartments,"4,Gayatri Nagar,Asha Nagar,Kandivali East",Kandivali East,19.21086,72.86651,350,11000,30000,31.42857143,85.71428571
831,1 RK, Apartments,aarey milk,Aarey Milk Colony,19.07598,72.87766,340,13000,30000,38.23529412,88.23529412
832,1 RK, Apartments,Andheri East,Andheri East,19.1154908,72.8726952,225,9500,20000,42.22222222,88.88888889
833,1 RK, Apartments,NA,Kandivali East,19.2115,72.8737,350,13000,50000,37.14285714,142.8571429
834,1 RK, Apartments,Grant Road,Grant Road West,18.963,72.81757,400,40000,250000,100,625
835,1 RK, Apartments,"Chandivali Road, MHADA Colony, Chandivali, Powai",Chandivali,19.11276,72.89761,280,14000,30000,50,107.1428571
836,1 RK, Apartments,Hub mall,Goregaon East,19.15515,72.86786,380,15000,50000,39.47368421,131.5789474
837,1 RK, Apartments,NA,Kandivali East,19.03305,73.02966,350,11000,30000,31.42857143,85.71428571
838,1 RK, Apartments,"Royal Palms Road, Royal Palms Estate, Aarey Colony, Goregaon East",Aarey Milk Colony,19.07598,72.87766,340,13000,30000,38.23529412,88.23529412
839,1 RK, Apartments,NA,Kandivali East,19.2115,72.8737,330,13000,40000,39.39393939,121.2121212
840,1 RK, Apartments,Colaba,Colaba,18.9067,72.81471,400,40000,150000,100,375
841,1 RK, Apartments,"The Hub Mall, Cama Industrial Estate, Goregaon East",Goregaon East,19.1548,72.85625,380,15000,50000,39.47368421,131.5789474
842,1 RK, Apartments,"Jinal Coop Hsg Society, 90 Feet Road, Gokul Garden VWX, Kandivali East",Kandivali East,19.21138,72.86195,350,11000,30000,31.42857143,85.71428571
843,1 RK, Apartments,"Chandivali Mhada Colony, MHADA Colony, Chandivali, Powai",Chandivali,19.11134,72.89669,280,14000,30000,50,107.1428571
844,1 RK, Apartments,"Royal Palms Road, Royal Palms Estate, Aarey Colony, Goregaon East",Aarey Milk Colony,19.14751,72.893,340,13000,30000,38.23529412,88.23529412
845,1 RK, Apartments,NA,Kandivali East,19.2115,72.8737,300,13000,50000,43.33333333,166.6666667
846,1 RK, Apartments,Colaba,Colaba,18.9067,72.81471,350,35000,150000,100,428.5714286
847,1 RK, Apartments,Goregaon East,Goregaon East,19.15515,72.86786,380,15000,20000,39.47368421,52.63157895
848,1 RK, Apartments,"Chandivali Road, MHADA Colony, Chandivali, Powai",Chandivali,19.11276,72.89761,280,14000,30000,50,107.1428571
849,1 RK, Apartments,Kandivali East,Kandivali East,19.21145,72.87372,350,11000,50000,31.42857143,142.8571429
850,1 RK, Apartments,Kandivali East,Kandivali East,19.2114533,72.8737217,350,13000,35000,37.14285714,100
851,1 RK, Apartments,"Royal Palms Road, Royal Palms Estate, Aarey Colony, Goregaon East",Aarey Milk Colony,19.14751,72.893,340,13000,30000,38.23529412,88.23529412
852,1 RK, Apartments,Worli,Worli,18.9872,72.82905,400,35000,100000,87.5,250
853,1 RK, Apartments,Goregaon East,Goregaon East,19.15515,72.86786,380,14500,50000,38.15789474,131.5789474
854,1 RK, Apartments,"Chandivali Mhada Colony, MHADA Colony, Chandivali, Powai",Chandivali,19.11134,72.89669,280,14000,30000,50,107.1428571
855,1 RK, Apartments,Kandivali East,Kandivali East,19.2114533,72.8737217,350,12500,30000,35.71428571,85.71428571
856,1 RK, Apartments,aarey milk,Aarey Milk Colony,19.07598,72.87766,340,13000,30000,38.23529412,88.23529412
857,1 RK, Apartments,Grant Road,Grant Road West,18.963,72.81757,400,35000,200000,87.5,500
858,1 RK, Apartments,Goregaon East,Goregaon East,19.15515,72.86786,380,14500,50000,38.15789474,131.5789474
859,1 RK, Apartments,"Chandivali Mhada Colony, MHADA Colony, Chandivali, Powai",Chandivali,19.11134,72.89669,280,14000,30000,50,107.1428571
860,1 RK, Apartments,Kandivali East,Kandivali East,19.2114533,72.8737217,330,12500,25000,37.87878788,75.75757576
